{"version": 0.6, "generator": "Overpass API 0.7.62.11 87bfad18", "osm3s": {"timestamp_osm_base": "2026-07-02T15:43:50Z", "copyright": "The data included in this document is from www.openstreetmap.org. The data is made available under ODbL."}, "elements": [{"type": "node", "id": 303942550, "lat": 42.6989098, "lon": 23.3225781}, {"type": "node", "id": 303942555, "lat": 42.6980669, "lon": 23.3223378}, {"type": "node", "id": 303942578, "lat": 42.6988945, "lon": 23.3226756}, {"type": "node", "id": 303942584, "lat": 42.6988359, "lon": 23.3230459}, {"type": "node", "id": 303942661, "lat": 42.6986474, "lon": 23.3230968}, {"type": "node", "id": 303942662, "lat": 42.6981357, "lon": 23.3229482}, {"type": "node", "id": 308744846, "lat": 42.6946785, "lon": 23.311428, "tags": {"brand": "\u0414\u0430\u0440", "brand:wikidata": "Q114053570", "int_name": "Dar", "name": "\u0414\u0430\u0440", "name:en": "Dar", "opening_hours": "Mo-Su,PH 08:00-22:00", "shop": "supermarket", "website": "https://magazinidar.com/"}}, {"type": "node", "id": 614047493, "lat": 42.6998172, "lon": 23.3213367}, {"type": "node", "id": 614047494, "lat": 42.6996866, "lon": 23.3221075}, {"type": "node", "id": 614047495, "lat": 42.7001559, "lon": 23.3222548}, {"type": "node", "id": 614047497, "lat": 42.7002865, "lon": 23.321484}, {"type": "node", "id": 1699498003, "lat": 42.6933186, "lon": 23.3176556, "tags": {"addr:city": "\u0421\u043e\u0444\u0438\u044f", "addr:country": "BG", "addr:housenumber": "38\u0411", "addr:postcode": "1000", "addr:street": "\u0421\u043e\u043b\u0443\u043d\u0441\u043a\u0430", "name": "\u041c\u043e\u044f\u0442 \u043c\u0430\u0433\u0430\u0437\u0438\u043d", "opening_hours": "Mo-Fr 08:30-20:30; Sa, Su 09:00-20:30", "operator": "\u041c\u043e\u044f\u0442 \u043c\u0430\u0433\u0430\u0437\u0438\u043d", "shop": "supermarket", "website": "http://www.my-store.bg/nasite-magazini/849"}}, {"type": "node", "id": 1699936508, "lat": 42.6979744, "lon": 23.3229013}, {"type": "node", "id": 1699937847, "lat": 42.6987634, "lon": 23.3231305}, {"type": "node", "id": 1699937850, "lat": 42.69882, "lon": 23.3231469}, {"type": "node", "id": 1699937869, "lat": 42.6988965, "lon": 23.3230635}, {"type": "node", "id": 1699937876, "lat": 42.6989546, "lon": 23.3226931}, {"type": "node", "id": 1745952652, "lat": 42.6911323, "lon": 23.3114757, "tags": {"brand": "\u0411\u0443\u0440\u043b\u0435\u043a\u0441", "brand:wikidata": "Q124736705", "check_date": "2025-12-09", "check_date:opening_hours": "2025-12-09", "name": "\u0411\u0443\u0440\u043b\u0435\u043a\u0441", "opening_hours": "Mo-Su,PH 08:00-22:00", "shop": "supermarket"}}, {"type": "node", "id": 1854248345, "lat": 42.6999236, "lon": 23.3221819, "tags": {"entrance": "main", "foot": "yes", "wheelchair": "no"}}, {"type": "node", "id": 1854248348, "lat": 42.7000669, "lon": 23.3214151, "tags": {"entrance": "emergency"}}, {"type": "node", "id": 2691124914, "lat": 42.6961201, "lon": 23.3193933, "tags": {"check_date": "2025-12-17", "cuisine": "banitsa", "indoor_seating": "no", "name": "\u0428\u043e\u043f\u0441\u043a\u0430 \u0431\u0430\u043d\u0438\u0446\u0430", "opening_hours": "Mo-Sa 07:00-18:30", "outdoor_seating": "no", "shop": "bakery", "wheelchair": "no"}}, {"type": "node", "id": 2910129879, "lat": 42.6923122, "lon": 23.3148738, "tags": {"check_date": "2025-07-09", "name": "Deni", "name:bg": "\u0414\u0435\u043d\u0438", "name:en": "Deni", "opening_hours": "Mo-Sa 08:00-22:00; Su 08:30-22:00", "shop": "supermarket"}}, {"type": "node", "id": 2911264132, "lat": 42.6947602, "lon": 23.3164691, "tags": {"addr:city": "\u0421\u043e\u0444\u0438\u044f", "addr:housenumber": "14", "addr:postcode": "1000", "addr:street": "\u0410\u043b\u0430\u0431\u0438\u043d", "brand": "Alcohol & Tabakoff", "brand:wikidata": "Q111364479", "check_date": "2026-06-29", "check_date:opening_hours": "2024-10-28", "name": "Alcohol & Tabakoff", "opening_hours": "24/7", "shop": "alcohol", "website": "https://www.alcoholtabakoff.com/", "wheelchair": "no"}}, {"type": "node", "id": 2918491672, "lat": 42.6941063, "lon": 23.3214953, "tags": {"addr:housenumber": "8", "addr:street": "\u0425\u0440\u0438\u0441\u0442\u043e \u0411\u0435\u043b\u0447\u0435\u0432", "check_date": "2023-04-19", "name": "\u041c\u0430\u043d\u0434\u0430\u0440\u0438\u043d", "opening_hours": "24/7", "phone": "+359 2 958 1259", "shop": "supermarket", "toilets:wheelchair": "no", "wheelchair": "yes"}}, {"type": "node", "id": 2918606251, "lat": 42.6920403, "lon": 23.3306756, "tags": {"addr:housenumber": "11", "addr:street": "\u0426\u0430\u0440 \u0418\u0432\u0430\u043d \u0428\u0438\u0448\u043c\u0430\u043d", "check_date:opening_hours": "2026-02-13", "indoor_seating": "yes", "name:signed": "no", "opening_hours": "Mo-Fr 08:00-18:00", "opening_hours:signed": "no", "outdoor_seating": "no", "shop": "bakery"}}, {"type": "node", "id": 2923429803, "lat": 42.7038064, "lon": 23.3237417, "tags": {"check_date": "2025-01-09", "check_date:opening_hours": "2025-01-09", "name": "\u0427\u0435\u0440\u0432\u0435\u043d\u0430\u0442\u0430 \u041c\u0430\u0439\u043c\u0443\u043d\u043a\u0430", "opening_hours": "24/7", "shop": "alcohol"}}, {"type": "node", "id": 2923432701, "lat": 42.7045952, "lon": 23.3233101, "tags": {"addr:city": "\u0421\u043e\u0444\u0438\u044f", "addr:postcode": "1202", "brand": "Billa", "brand:wikidata": "Q537781", "check_date": "2025-11-24", "name": "Billa", "name:bg": "\u0411\u0438\u043b\u043b\u0430", "opening_hours": "Mo-Su 07:30-22:00", "phone": "+359 2 903 6380", "shop": "supermarket", "website": "https://www.billa.bg/"}}, {"type": "node", "id": 2923437401, "lat": 42.7032477, "lon": 23.3230967, "tags": {"check_date": "2025-06-30", "contact:facebook": "https://www.facebook.com/profile.php?id=100068890742892", "name": "K-food", "opening_hours": "Mo-Sa 10:00-19:00; Su 12:00-18:00", "phone": "+359 89 786 5337", "shop": "supermarket"}}, {"type": "node", "id": 2932534180, "lat": 42.689262, "lon": 23.3218402, "tags": {"check_date:opening_hours": "2024-01-27", "indoor_seating": "no", "name": "JoVan The Dutch Bakery", "opening_hours": "Mo-Sa 08:00-20:00", "outdoor_seating": "no", "phone": "+359 88 588 6190", "shop": "bakery", "takeaway": "only", "website": "https://jovan.bg/"}}, {"type": "node", "id": 3004569348, "lat": 42.7052977, "lon": 23.3247713, "tags": {"indoor_seating": "yes", "name": "\u041d\u0438-\u043a\u0430\u0439", "opening_hours": "Mo-Su 07:00-19:00", "outdoor_seating": "no", "shop": "bakery"}}, {"type": "node", "id": 3040139072, "lat": 42.6903209, "lon": 23.3288076, "tags": {"addr:housenumber": "27", "addr:street": "\u0426\u0430\u0440 \u0418\u0432\u0430\u043d \u0428\u0438\u0448\u043c\u0430\u043d", "check_date:opening_hours": "2025-12-19", "indoor_seating": "yes", "name": "\u0425\u043b\u0435\u0411\u0430\u0440", "opening_hours": "07:30-20:30", "outdoor_seating": "no", "phone": "+359 89 360 1317", "shop": "bakery", "website": "https://www.facebook.com/hlebarh"}}, {"type": "node", "id": 3167611861, "lat": 42.7002616, "lon": 23.3241332, "tags": {"brand": "Lidl", "brand:wikidata": "Q108169047", "check_date": "2024-09-02", "name": "Lidl", "name:bg": "\u041b\u0438\u0434\u043b", "name:en": "Lidl", "opening_hours": "Mo-Sa 07:30-21:30; Su 09:00-21:30", "phone": "+359 800 14141", "ref": "167", "shop": "supermarket", "website": "https://www.lidl.bg/"}}, {"type": "node", "id": 3380245788, "lat": 42.6956313, "lon": 23.3101267}, {"type": "node", "id": 3380245789, "lat": 42.695712, "lon": 23.3096691}, {"type": "node", "id": 3380245791, "lat": 42.695269, "lon": 23.3094178}, {"type": "node", "id": 3504358319, "lat": 42.6977311, "lon": 23.3266735, "tags": {"addr:housenumber": "8-10", "addr:street": "\u0431\u0443\u043b. \u041a\u043d\u044f\u0437 \u0410\u043b\u0435\u043a\u0441\u0430\u043d\u0434\u044a\u0440 \u0414\u043e\u043d\u0434\u0443\u043a\u043e\u0432", "brand": "Alcohol & Tabakoff", "brand:wikidata": "Q111364479", "check_date": "2025-11-05", "name": "Alcohol & Tabakoff", "opening_hours": "24/7", "shop": "alcohol", "website": "https://www.alcoholtabakoff.com/", "wheelchair": "limited"}}, {"type": "node", "id": 3511834082, "lat": 42.6980318, "lon": 23.3297693, "tags": {"addr:postcode": "1000", "brand": "Alcohol & Tabakoff", "brand:wikidata": "Q111364479", "name": "Alcohol & Tabakoff", "opening_hours": "24/7", "shop": "alcohol", "website": "https://www.alcoholtabakoff.com/"}}, {"type": "node", "id": 3511834083, "lat": 42.6980131, "lon": 23.3294716, "tags": {"indoor_seating": "yes", "name": "\u0429\u0430\u0441\u0442\u043b\u0438\u0432\u0430\u0442\u0430 \u043f\u0435\u043a\u0430\u0440\u043d\u0430", "opening_hours": "Mo-Sa 08:00-20:00; Su 08:00-19:00", "outdoor_seating": "no", "shop": "bakery", "wheelchair": "limited"}}, {"type": "node", "id": 3524236653, "lat": 42.6946847, "lon": 23.3218748, "tags": {"addr:housenumber": "1", "addr:postcode": "1000", "addr:street": "\u0425\u0440\u0438\u0441\u0442\u043e \u0411\u0435\u043b\u0447\u0435\u0432", "air_conditioning": "yes", "check_date": "2026-06-26", "contact:facebook": "https://www.facebook.com/TheDutchBakeryJoVan/", "contact:instagram": "https://www.instagram.com/explore/locations/597402689/jovan-the-dutch-baker/", "contact:phone": "+359 88 478 2976", "email": "milenka_69@abv.bg", "indoor_seating": "no", "level": "0", "name": "JoVan The Dutch Bakery", "opening_hours": "Mo-Sa 08:00-20:00; Su off", "outdoor_seating": "no", "payment:cash": "yes", "payment:contactless": "yes", "payment:mastercard": "yes", "payment:unionpay": "yes", "payment:visa": "yes", "shop": "bakery", "takeaway": "only", "toilets:wheelchair": "no", "website": "https://jovan.bg/", "wheelchair": "no"}}, {"type": "node", "id": 3526994600, "lat": 42.6944193, "lon": 23.3233935, "tags": {"name": "Vinello", "opening_hours": "Mo-Sa 11:00-20:00", "shop": "alcohol"}}, {"type": "node", "id": 3534288461, "lat": 42.6938746, "lon": 23.3285254, "tags": {"check_date": "2024-10-07", "name": "Broadway", "opening_hours": "24/7", "shop": "alcohol"}}, {"type": "node", "id": 3540100354, "lat": 42.6917718, "lon": 23.325333, "tags": {"addr:city": "\u0421\u043e\u0444\u0438\u044f", "addr:housenumber": "116", "addr:postcode": "1000", "addr:street": "\u0413\u0435\u043e\u0440\u0433\u0438 \u0421. \u0420\u0430\u043a\u043e\u0432\u0441\u043a\u0438", "brand": "Billa", "brand:wikidata": "Q537781", "name": "Billa", "name:bg": "\u0411\u0438\u043b\u043b\u0430", "opening_hours": "Mo-Su 07:30-22:00", "phone": "+359 2 902 5430", "self_checkout": "yes", "shop": "supermarket", "wheelchair": "no"}}, {"type": "node", "id": 3540782518, "lat": 42.6897648, "lon": 23.3256684, "tags": {"name:signed": "no", "opening_hours": "Mo-Fr 07:00-21:00; Sa,Su 08:00-20:00", "shop": "alcohol"}}, {"type": "node", "id": 3540805394, "lat": 42.6895558, "lon": 23.3254067, "tags": {"check_date:opening_hours": "2025-06-08", "contact:facebook": "https://www.facebook.com/slunceluna", "contact:phone": "+359 89 913 8411", "diet:vegan": "yes", "diet:vegetarian": "yes", "indoor_seating": "yes", "name": "\u0421\u043b\u044a\u043d\u0446\u0435 \u041b\u0443\u043d\u0430", "name:en": "Sun Moon", "opening_hours": "Mo-Su 09:00-22:00", "outdoor_seating": "yes", "shop": "bakery", "website": "http://sunmoon.bg/", "wheelchair": "limited"}}, {"type": "node", "id": 3542454134, "lat": 42.6900938, "lon": 23.3316467, "tags": {"check_date:opening_hours": "2024-05-29", "level": "-1", "name": "\u0421\u043f\u043e\u0440\u0442\u043d\u0430 \u043f\u0430\u043b\u0430\u0442\u0430", "opening_hours": "Mo-Fr 08:00-21:00; Sa,Su 09:00-20:00", "shop": "supermarket"}}, {"type": "node", "id": 3590711688, "lat": 42.6890239, "lon": 23.3202438, "tags": {"check_date": "2025-05", "check_date:opening_hours": "2025-01-31", "name": "\u0410\u043b\u043a\u043e\u0445\u043e\u043b \u0438 \u0426\u0438\u0433\u0430\u0440\u0438", "name:en": "Alcohol and Tobacco", "name:signed": "no", "opening_hours": "08:00-01:00", "payment:mastercard": "yes", "payment:visa": "yes", "shop": "alcohol", "wheelchair": "limited"}}, {"type": "node", "id": 3657752175, "lat": 42.6908394, "lon": 23.3255494, "tags": {"check_date": "2025-12-11", "check_date:opening_hours": "2025-12-11", "indoor_seating": "no", "name": "Chock Chock", "opening_hours": "Mo-Fr 08:00-19:00; Sa-Su 09:00-19:00", "operator": "\u0412\u0435\u0441\u0435\u043b\u0438\u0442\u0435 \u041a\u0440\u044a\u0447\u043c\u0438 \u041e\u041e\u0414", "outdoor_seating": "no", "shop": "bakery", "takeaway": "only", "wheelchair": "no"}}, {"type": "node", "id": 3657766541, "lat": 42.69065, "lon": 23.3257639, "tags": {"contact:facebook": "https://www.facebook.com/%D0%A5%D0%A5%D0%A5-%D0%9C%D0%9E%D0%94%D0%90-715777725150104/", "name": "Cosmic craft beer", "opening_hours": "13:00-22:00", "shop": "alcohol"}}, {"type": "node", "id": 3783832915, "lat": 42.6904446, "lon": 23.3232461, "tags": {"brand": "Lidl", "brand:wikidata": "Q108169047", "check_date": "2026-02-23", "name": "Lidl", "name:bg": "\u041b\u0438\u0434\u043b", "name:en": "Lidl", "opening_hours": "Mo-Sa 07:30-21:30; Su 08:30-21:30", "ref": "177", "shop": "supermarket", "website": "https://www.lidl.bg/"}}, {"type": "node", "id": 3864885266, "lat": 42.6947096, "lon": 23.3209704, "tags": {"addr:city": "\u0421\u043e\u0444\u0438\u044f", "addr:housenumber": "9", "addr:postcode": "1000", "addr:street": "\u0431\u0443\u043b. \u0412\u0438\u0442\u043e\u0448\u0430", "check_date": "2025-11-11", "indoor_seating": "no", "name": "Eddy's", "opening_hours": "Mo-Su 07:30-20:30", "outdoor_seating": "no", "shop": "bakery", "takeaway": "only"}}, {"type": "node", "id": 4102651332, "lat": 42.6985069, "lon": 23.3224604}, {"type": "node", "id": 4102651333, "lat": 42.6985728, "lon": 23.3224803}, {"type": "node", "id": 4119608363, "lat": 42.699402, "lon": 23.3205978, "tags": {"brand": "Billa", "brand:wikidata": "Q537781", "check_date": "2025-11-11", "name": "Billa", "name:bg": "\u0411\u0438\u043b\u043b\u0430", "opening_hours": "Mo-Su 07:30-22:00", "phone": "+359 2 902 6020", "shop": "supermarket", "website": "https://www.billa.bg/"}}, {"type": "node", "id": 4140664992, "lat": 42.6979978, "lon": 23.3229081}, {"type": "node", "id": 4149979410, "lat": 42.6957114, "lon": 23.3100509}, {"type": "node", "id": 4149979411, "lat": 42.695751, "lon": 23.3096323}, {"type": "node", "id": 4373670261, "lat": 42.6937246, "lon": 23.3126605, "tags": {"addr:city": "\u0421\u043e\u0444\u0438\u044f", "addr:housenumber": "24", "addr:postcode": "1606", "addr:street": "\u0431\u0443\u043b. \u041c\u0430\u043a\u0435\u0434\u043e\u043d\u0438\u044f", "check_date": "2026-06-25", "contact:facebook": "https://www.facebook.com/promarket.bg", "level": "0", "name": "ProMarket", "name:bg": "\u041f\u0440\u043e\u041c\u0430\u0440\u043a\u0435\u0442", "opening_hours": "Mo-Su 07:00-22:00", "payment:cash": "yes", "shop": "supermarket", "website": "https://promarket.bg/", "website:menu": "https://promarket.bg/%D0%B4%D0%BD%D0%B5%D0%B2%D0%BD%D0%B8-%D1%86%D0%B5%D0%BD%D0%B8/", "wheelchair": "no"}}, {"type": "node", "id": 4493745789, "lat": 42.7024913, "lon": 23.328988, "tags": {"check_date:opening_hours": "2025-01-09", "indoor_seating": "yes", "name": "Bamita", "opening_hours:signed": "no", "outdoor_seating": "no", "shop": "bakery"}}, {"type": "node", "id": 4501417463, "lat": 42.6949089, "lon": 23.3198224, "tags": {"check_date": "2025-11-11", "indoor_seating": "yes", "name": "Bonjour Juliette", "opening_hours": "Mo-Fr 06:30-21:00; Sa,Su 08:00-20:00", "outdoor_seating": "no", "shop": "bakery", "wheelchair": "limited"}}, {"type": "node", "id": 4501417477, "lat": 42.6943273, "lon": 23.3182112, "tags": {"name:signed": "no", "opening_hours": "Mo-Fr 08:00-20:00", "shop": "alcohol"}}, {"type": "node", "id": 4507330445, "lat": 42.6933347, "lon": 23.3192752, "tags": {"indoor_seating": "no", "name": "Nade", "opening_hours": "Mo-Fr 07:30-17:00", "outdoor_seating": "no", "shop": "bakery", "takeaway": "only"}}, {"type": "node", "id": 4509356530, "lat": 42.6930686, "lon": 23.3209267}, {"type": "node", "id": 4509356532, "lat": 42.6931762, "lon": 23.3209588}, {"type": "node", "id": 4509356535, "lat": 42.6932231, "lon": 23.3206674}, {"type": "node", "id": 4509422561, "lat": 42.6928326, "lon": 23.319881, "tags": {"name": "Hill", "opening_hours": "Mo-Su 07:30-24:00", "shop": "alcohol"}}, {"type": "node", "id": 4511203072, "lat": 42.6936863, "lon": 23.3214181, "tags": {"addr:housenumber": "38", "addr:postcode": "1000", "addr:street": "\u0418\u0432\u0430\u043d \u0414\u0435\u043d\u043a\u043e\u0433\u043b\u0443", "brand": "Alcohol & Tabakoff", "brand:wikidata": "Q111364479", "check_date:opening_hours": "2025-01-30", "name": "Alcohol & Tabakoff", "opening_hours": "Mo-Su 07:00-22:00", "shop": "alcohol", "wheelchair": "limited"}}, {"type": "node", "id": 4511291629, "lat": 42.6939411, "lon": 23.3229369, "tags": {"name:signed": "no", "opening_hours": "Mo-Su,PH 07:00-22:00", "shop": "alcohol"}}, {"type": "node", "id": 4516159965, "lat": 42.6930003, "lon": 23.331449, "tags": {"addr:city": "\u0421\u043e\u0444\u0438\u044f", "addr:housenumber": "2", "addr:postcode": "1000", "addr:street": "\u0426\u0430\u0440 \u0418\u0432\u0430\u043d \u0428\u0438\u0448\u043c\u0430\u043d", "check_date:opening_hours": "2026-02-13", "indoor_seating": "yes", "name": "Tita & Yoyo", "opening_hours": "Mo-Fr 07:30-19:00; Sa,Su 09:00-17:00", "outdoor_seating": "no", "shop": "bakery"}}, {"type": "node", "id": 4522165669, "lat": 42.6924234, "lon": 23.322101, "tags": {"name": "Kinky", "opening_hours": "Mo-Fr 07:30-21:30; Sa,Su 08:00-22:00", "shop": "alcohol"}}, {"type": "node", "id": 4529232037, "lat": 42.6927964, "lon": 23.3287556, "tags": {"contact:facebook": "KolichkaBar", "contact:instagram": "kolichkabar", "email": "coffeeholics@kolichkabar.com", "name": "Kolichka Bar Specialty Coffee Shop", "opening_hours": "Mo-Fr 07:00-18:00; Sa-Su 08:00-18:00", "phone": "+359 87 918 8015", "shop": "coffee", "website": "https://kolichkabar.com/"}}, {"type": "node", "id": 4529249059, "lat": 42.6921892, "lon": 23.3302551, "tags": {"brand": "\u0410\u0432\u0430\u043d\u0442\u0438", "brand:wikidata": "Q111364476", "check_date:opening_hours": "2026-02-13", "int_name": "Avanti", "name": "\u0410\u0432\u0430\u043d\u0442\u0438", "name:bg": "\u0410\u0432\u0430\u043d\u0442\u0438", "name:en": "Avanti", "opening_hours": "Mo-Fr 07:00-21:00; Sa,Su 08:00-21:00", "shop": "alcohol", "website": "https://avanti-bg.com/"}}, {"type": "node", "id": 4532877618, "lat": 42.6908358, "lon": 23.3145578, "tags": {"check_date": "2025-07-09", "name": "Stamp", "shop": "coffee"}}, {"type": "node", "id": 4532944567, "lat": 42.6907089, "lon": 23.3175998, "tags": {"check_date:opening_hours": "2024-08-12", "name": "Power On", "note": "\"\u0427\u0438\u0441\u0442\u0430 \u0445\u0440\u0430\u043d\u0430\". What do they sell exactly?", "opening_hours:signed": "no", "shop": "food"}}, {"type": "node", "id": 4532944574, "lat": 42.6911116, "lon": 23.317237, "tags": {"name:signed": "no", "opening_hours": "Mo-Fr 08:00-20:00; Sa 09:00-19:00", "shop": "alcohol"}}, {"type": "node", "id": 4534850695, "lat": 42.6911924, "lon": 23.3183143, "tags": {"contact:facebook": "https://www.facebook.com/Red-Bell-1080746408652652/", "contact:phone": "+359 87 760 6614", "indoor_seating": "yes", "int_name": "Le Gout de l'amour", "name": "\u0421 \u0432\u043a\u0443\u0441 \u043d\u0430 \u043b\u044e\u0431\u043e\u0432", "opening_hours": "Mo-Sa 07:30-14:00", "outdoor_seating": "no", "shop": "bakery"}}, {"type": "node", "id": 4535001821, "lat": 42.6909164, "lon": 23.3201405, "tags": {"name": "\u041c\u0435\u0434\u043e\u0432\u0438\u043d\u0430", "opening_hours": "Mo-Sa 07:30-21:00", "shop": "alcohol"}}, {"type": "node", "id": 4540424487, "lat": 42.6909687, "lon": 23.3244155, "tags": {"name:signed": "no", "opening_hours": "24/7", "shop": "alcohol"}}, {"type": "node", "id": 4543907639, "lat": 42.6904247, "lon": 23.3292267, "tags": {"addr:city": "\u0421\u043e\u0444\u0438\u044f", "addr:housenumber": "1", "addr:postcode": "1000", "addr:street": "\u042e\u0440\u0438\u0439 \u0412\u0435\u043d\u0435\u043b\u0438\u043d", "contact:facebook": "https://www.facebook.com/100beersbg/", "contact:phone": "+359 87 986 4667", "name": "100 Beers", "opening_hours": "Mo-Fr 10:00-20:00; Sa,Su 10:00-20:00", "shop": "alcohol", "website": "https://100beers.bg/"}}, {"type": "node", "id": 4548587193, "lat": 42.6899551, "lon": 23.323535, "tags": {"check_date:opening_hours": "2025-04-23", "name:signed": "no", "note": "Sign says \"Haribo\" but it's really an alcohol shop, I'm puzzled", "opening_hours": "07:00-22:00", "shop": "alcohol"}}, {"type": "node", "id": 4551477886, "lat": 42.6899906, "lon": 23.3264496, "tags": {"check_date": "2026-06-29", "level": "0", "name": "\u0417\u0435\u043b\u0435\u043d", "opening_hours": "Mo-Su 09:00-21:00", "organic": "only", "shop": "supermarket"}}, {"type": "node", "id": 4551514871, "lat": 42.6890507, "lon": 23.3276931, "tags": {"name": "ProMarket", "shop": "supermarket"}}, {"type": "node", "id": 4554652926, "lat": 42.6893983, "lon": 23.3302053, "tags": {"addr:city": "\u0421\u043e\u0444\u0438\u044f", "addr:housenumber": "65", "addr:postcode": "1142", "addr:street": "\u0431\u0443\u043b. \u0412\u0430\u0441\u0438\u043b \u041b\u0435\u0432\u0441\u043a\u0438", "name": "4:20 shop", "opening_hours": "Mo-Fr 10:30-20:00; Sa,Su 11:00-19:30", "shop": "general"}}, {"type": "node", "id": 4588155892, "lat": 42.7065275, "lon": 23.3300451, "tags": {"addr:street": "\u0422\u0438\u043c\u043e\u043a", "shop": "supermarket"}}, {"type": "node", "id": 4856549121, "lat": 42.6984005, "lon": 23.3259811, "tags": {"alt_name": "\u041c\u0430\u0433\u0430\u0437\u0438\u043d 345", "name": "\u041c\u0430\u0433\u0430\u0437\u0438\u043d\u044a 345", "opening_hours": "24/7", "shop": "supermarket", "short_name": "345", "website": "https://magazin345.bg/"}}, {"type": "node", "id": 4947500072, "lat": 42.7014914, "lon": 23.3226028, "tags": {"indoor_seating": "yes", "name": "King's Bakery", "opening_hours": "Mo-Fr 06:00-19:00; Sa 06:00-16:00", "outdoor_seating": "no", "shop": "bakery"}}, {"type": "node", "id": 4947500092, "lat": 42.7001732, "lon": 23.3229861, "tags": {"name:signed": "no", "opening_hours": "24/7", "shop": "alcohol"}}, {"type": "node", "id": 4956430040, "lat": 42.695563, "lon": 23.3172054, "tags": {"addr:city": "\u0421\u043e\u0444\u0438\u044f", "addr:housenumber": "9", "addr:street": "\u0422\u0440\u0438 \u0443\u0448\u0438", "indoor_seating": "yes", "name": "\u0421\u0442\u0430\u0440\u0430\u0442\u0430 \u043a\u044a\u0449\u0430", "opening_hours": "Mo-Fr 08:00-19:00", "outdoor_seating": "yes", "shop": "bakery", "website": "https://ninovi-bg.com/"}}, {"type": "node", "id": 5237160406, "lat": 42.6987174, "lon": 23.3333223, "tags": {"check_date": "2024-12-06", "check_date:opening_hours": "2024-12-06", "name": "Jim", "opening_hours": "Mo-Fr 07:00-21:00; Sa,Su 08:00-21:00", "shop": "alcohol"}}, {"type": "node", "id": 5237160413, "lat": 42.6986862, "lon": 23.3329668, "tags": {"addr:city": "\u0421\u043e\u0444\u0438\u044f", "addr:housenumber": "49", "addr:postcode": "1000", "addr:street": "\u0431\u0443\u043b. \u041a\u043d\u044f\u0437 \u0410\u043b\u0435\u043a\u0441\u0430\u043d\u0434\u044a\u0440 \u0414\u043e\u043d\u0434\u0443\u043a\u043e\u0432", "brand": "\u041f\u0440\u0435\u0434\u0438\u043c\u043d\u043e \u043f\u0435\u043a\u0430\u0440\u043d\u0430", "indoor_seating": "yes", "internet_access": "wlan", "name": "\u041f\u0440\u0435\u0434\u0438\u043c\u043d\u043e \u043f\u0435\u043a\u0430\u0440\u043d\u0430", "opening_hours": "Mo-Fr 07:30-19:30; Sa, Su 08:00-18:00", "operator": "Bakery 49 OOD", "outdoor_seating": "yes", "payment:cash": "yes", "payment:contactless": "yes", "payment:credit_cards": "yes", "payment:debit_cards": "yes", "payment:mastercard": "yes", "payment:visa": "yes", "shop": "bakery", "toilets": "yes", "website": "https://predimno-pekarna.com/"}}, {"type": "node", "id": 5237160634, "lat": 42.698451, "lon": 23.3302769, "tags": {"addr:city": "\u0421\u043e\u0444\u0438\u044f", "addr:country": "BG", "addr:housenumber": "3", "addr:street": "\u0421\u0442\u0430\u0440\u0430 \u043f\u043b\u0430\u043d\u0438\u043d\u0430", "amenity": "fast_food", "brand": "\u0421\u043e\u0444\u0438\u0439\u0441\u043a\u0430 \u0431\u0430\u043d\u0438\u0446\u0430", "brand:wikidata": "Q136404664", "cuisine": "banitsa", "indoor_seating": "yes", "name": "\u0421\u043e\u0444\u0438\u0439\u0441\u043a\u0430 \u0431\u0430\u043d\u0438\u0446\u0430", "opening_hours": "Mo-Su, PH 07:00-16:00", "outdoor_seating": "no", "shop": "bakery", "takeaway": "yes"}}, {"type": "node", "id": 5241045124, "lat": 42.7042847, "lon": 23.3234722, "tags": {"check_date:opening_hours": "2024-08-15", "indoor_seating": "no", "name": "\u041a\u044a\u0440\u043a-\u043d\u0430", "opening_hours:signed": "no", "outdoor_seating": "no", "shop": "bakery", "takeaway": "only"}}, {"type": "node", "id": 5522093322, "lat": 42.7057994, "lon": 23.3170455, "tags": {"check_date": "2025-06-30", "cuisine": "regional", "indoor_seating": "no", "name:signed": "no", "opening_hours": "Mo-Su 06:00-19:00", "outdoor_seating": "no", "shop": "bakery", "takeaway": "only"}}, {"type": "node", "id": 5531065622, "lat": 42.6917196, "lon": 23.3113805, "tags": {"check_date": "2025-06-03", "check_date:opening_hours": "2025-06-03", "indoor_seating": "yes", "name": "\u0417\u043b\u0430\u0442\u0435\u043d \u043a\u043b\u0430\u0441", "opening_hours": "Mo-Fr 06:30-18:30; Sa 07:00-18:30", "outdoor_seating": "no", "shop": "bakery", "wheelchair": "limited"}}, {"type": "node", "id": 5691332622, "lat": 42.6887862, "lon": 23.3127382, "tags": {"addr:street": "\u0431\u0443\u043b. \u041f\u0440\u0430\u0433\u0430", "check_date": "2024-11-01", "check_date:opening_hours": "2023-10-26", "cuisine": "banitsa", "indoor_seating": "no", "name:signed": "no", "opening_hours:signed": "no", "outdoor_seating": "no", "shop": "bakery", "takeaway": "only"}}, {"type": "node", "id": 5763895168, "lat": 42.6982321, "lon": 23.3322023, "tags": {"check_date": "2024-10-09", "check_date:opening_hours": "2024-10-09", "name:signed": "no", "opening_hours": "Mo-Fr 09:00-19:00; Sa 09:00-15:30", "shop": "coffee"}}, {"type": "node", "id": 5863892276, "lat": 42.7052707, "lon": 23.3120182, "tags": {"cuisine": "regional", "indoor_seating": "yes", "name": "\u0418\u0442\u0430\u043b\u0438\u0430\u043d\u0441\u043a\u0430\u0442\u0430 \u043f\u0435\u043a\u0430\u0440\u043d\u0430", "opening_hours": "Mo-Fr 07:00-16:00", "outdoor_seating": "no", "shop": "bakery"}}, {"type": "node", "id": 5920969172, "lat": 42.6985627, "lon": 23.3158813, "tags": {"name": "\u0410\u043b\u043a\u043e\u0445\u043e\u043b\u0430\u043d\u0434\u0438\u044f", "opening_hours": "24/7", "shop": "alcohol"}}, {"type": "node", "id": 6001405097, "lat": 42.693176, "lon": 23.3100502, "tags": {"check_date:opening_hours": "2025-05-28", "indoor_seating": "no", "name": "\u0410\u043c \u0411\u0430\u043c", "opening_hours": "Mo-Fr 06:00-17:00; Sa 07:00-13:00", "outdoor_seating": "no", "shop": "bakery", "takeaway": "only"}}, {"type": "node", "id": 6050088343, "lat": 42.6976456, "lon": 23.3166012, "tags": {"indoor_seating": "yes", "name": "King's Bakery", "opening_hours": "Mo-Fr 06:00-19:00; Sa 06:00-16:00", "outdoor_seating": "no", "shop": "bakery"}}, {"type": "node", "id": 6054196187, "lat": 42.7039341, "lon": 23.3333747, "tags": {"brand": "Alcohol & Tabakoff", "brand:wikidata": "Q111364479", "name": "Alcohol & Tabakoff", "opening_hours": "24/7", "shop": "alcohol", "website": "https://www.alcoholtabakoff.com/"}}, {"type": "node", "id": 6054196188, "lat": 42.7041131, "lon": 23.3328897, "tags": {"check_date": "2025-11-24", "name": "\u0414\u0438\u0441\u0438 \u0442\u0430\u0431\u0430\u043a\u043e", "opening_hours": "24/7", "shop": "alcohol"}}, {"type": "node", "id": 6054197003, "lat": 42.7002529, "lon": 23.3246171, "tags": {"name:signed": "no", "opening_hours": "Mo-Fr 07:30-20:00; Sa 09:30-19:00; Su 09:30-18:00", "shop": "alcohol"}}, {"type": "node", "id": 6054204485, "lat": 42.6955619, "lon": 23.3238817, "tags": {"indoor_seating": "yes", "int_name": "Claire", "name": "\u041a\u043b\u0435\u0440", "opening_hours": "Mo-Sa 08:00-19:00", "outdoor_seating": "no", "shop": "bakery"}}, {"type": "node", "id": 6054231188, "lat": 42.696936, "lon": 23.3190816, "tags": {"addr:city": "\u0421\u043e\u0444\u0438\u044f", "addr:housenumber": "130", "addr:street": "\u041a\u043d\u044f\u0437 \u0411\u043e\u0440\u0438\u0441 I", "check_date": "2025-12-30", "indoor_seating": "no", "name": "\u0420\u043e\u0434\u0435\u043d \u043a\u0440\u0430\u0439", "opening_hours": "Mo-Fr 07:00-18:00", "outdoor_seating": "no", "shop": "bakery", "takeaway": "only"}}, {"type": "node", "id": 6424185265, "lat": 42.6938491, "lon": 23.314843, "tags": {"check_date": "2025-12-17", "food": "prepared_meals", "indoor_seating": "no", "name:signed": "no", "opening_hours": "Apr-Sep: Mo-Su 07:00-22:00; Oct-Mar: Mo-Fr 07:00-20:00; Oct-Mar: Sa 08:30-18:00", "outdoor_seating": "no", "shop": "food", "takeaway": "only"}}, {"type": "node", "id": 6424822874, "lat": 42.6925441, "lon": 23.3115478, "tags": {"addr:city": "\u0421\u043e\u0444\u0438\u044f", "addr:housenumber": "29", "addr:postcode": "1606", "addr:street": "\u0431\u0443\u043b. \u041c\u0430\u043a\u0435\u0434\u043e\u043d\u0438\u044f", "name:signed": "no", "opening_hours": "24/7", "shop": "alcohol"}}, {"type": "node", "id": 6426744808, "lat": 42.691614, "lon": 23.3097936, "tags": {"check_date": "2025-12-09", "check_date:opening_hours": "2025-12-09", "indoor_seating": "yes", "name:signed": "no", "opening_hours": "Mo-Su 06:00-22:00", "outdoor_seating": "no", "shop": "bakery"}}, {"type": "node", "id": 6439666109, "lat": 42.6901993, "lon": 23.3133404, "tags": {"check_date": "2024-11-01", "name:signed": "no", "opening_hours": "Mo-Fr 08:00-21:00; Sa,Su 09:00-21:00", "shop": "supermarket", "wheelchair": "no"}}, {"type": "node", "id": 6441540907, "lat": 42.6888781, "lon": 23.3107879, "tags": {"addr:city": "\u0421\u043e\u0444\u0438\u044f", "addr:housenumber": "40", "addr:street": "\u0421\u0432. \u0418\u0432\u0430\u043d \u0420\u0438\u043b\u0441\u043a\u0438", "name": "\u0413\u0440\u0430\u0434\u0438\u043d\u043a\u0430", "opening_hours": "Mo-Su 08:00-20:00", "shop": "supermarket", "wheelchair": "no"}}, {"type": "node", "id": 6443975052, "lat": 42.6892437, "lon": 23.3133877, "tags": {"brand": "Fornetti", "brand:wikidata": "Q1003020", "check_date": "2024-11-01", "name": "Fornetti", "opening_hours": "Mo-Fr 06:00-18:00", "shop": "bakery"}}, {"type": "node", "id": 6444000460, "lat": 42.6893706, "lon": 23.3135805, "tags": {"cuisine": "banitsa", "indoor_seating": "no", "name": "Caf\u00e9 Matin\u00e9e", "opening_hours": "Mo-Sa 07:00-19:00", "outdoor_seating": "no", "shop": "bakery", "takeaway": "only"}}, {"type": "node", "id": 6509674550, "lat": 42.7058064, "lon": 23.3174634, "tags": {"check_date:opening_hours": "2025-07-07", "name:signed": "no", "opening_hours:signed": "no", "shop": "alcohol"}}, {"type": "node", "id": 6509674564, "lat": 42.7037214, "lon": 23.3173449, "tags": {"check_date": "2024-12-12", "name": "BM Market", "opening_hours": "24/7", "shop": "supermarket"}}, {"type": "node", "id": 6512153701, "lat": 42.6963563, "lon": 23.31813, "tags": {"addr:city": "\u0421\u043e\u0444\u0438\u044f", "addr:housenumber": "20", "addr:postcode": "1000", "addr:street": "\u041f\u043e\u0437\u0438\u0442\u0430\u043d\u043e", "name:signed": "no", "opening_hours": "Mo-Fr 07:30-19:30", "shop": "alcohol"}}, {"type": "node", "id": 6512697883, "lat": 42.692849, "lon": 23.3150187, "tags": {"check_date": "2025-09-18", "check_date:opening_hours": "2025-08-31", "name": "\u0420\u0430\u0439 \u043c\u0430\u0440\u043a\u0435\u0442", "opening_hours": "Mo-Su 08:00-21:00", "shop": "supermarket"}}, {"type": "node", "id": 6512699191, "lat": 42.6952656, "lon": 23.3150681, "tags": {"check_date:opening_hours": "2025-06-03", "indoor_seating": "yes", "name": "King's bakery", "opening_hours": "Mo-Fr 06:30-19:00; Sa 06:00-16:00; Su 07:00-15:00", "outdoor_seating": "no", "payment:credit_cards": "yes", "payment:debit_cards": "yes", "shop": "bakery", "wheelchair": "no"}}, {"type": "node", "id": 6516117387, "lat": 42.6962943, "lon": 23.322887, "tags": {"check_date": "2026-06-06", "name": "Dionis", "opening_hours": "24/7", "payment:cash": "yes", "payment:credit_cards": "yes", "payment:debit_cards": "yes", "shop": "alcohol", "wheelchair": "yes"}}, {"type": "node", "id": 6538162285, "lat": 42.7042432, "lon": 23.3223101, "tags": {"check_date": "2025-05-15", "check_date:opening_hours": "2025-05-15", "indoor_seating": "no", "name:signed": "no", "opening_hours": "Mo-Fr 07:30-15:30; Sa 07:00-15:30", "outdoor_seating": "no", "shop": "bakery", "takeaway": "only"}}, {"type": "node", "id": 6538162326, "lat": 42.704766, "lon": 23.3217401, "tags": {"name": "\u041f\u0440\u0438 Zupi", "shop": "alcohol"}}, {"type": "node", "id": 6543165888, "lat": 42.6998967, "lon": 23.310108, "tags": {"brand": "Fornetti", "brand:wikidata": "Q1003020", "indoor_seating": "no", "level": "-1", "name": "Fornetti", "opening_hours": "Mo-Fr 07:00-21:00; Sa,Su 08:00-19:00", "outdoor_seating": "no", "shop": "bakery", "takeaway": "only", "wheelchair": "yes"}}, {"type": "node", "id": 6578913576, "lat": 42.704385, "lon": 23.3336949, "tags": {"addr:city": "\u0421\u043e\u0444\u0438\u044f", "addr:housenumber": "152", "addr:postcode": "1505", "addr:street": "\u0431\u0443\u043b. \u0412\u0430\u0441\u0438\u043b \u041b\u0435\u0432\u0441\u043a\u0438", "branch": "\u0421\u0442\u043e\u0447\u043d\u0430 \u0433\u0430\u0440\u0430", "brand": "Lidl", "brand:wikidata": "Q108169047", "check_date": "2025-11-24", "name": "Lidl", "name:bg": "\u041b\u0438\u0434\u043b", "name:en": "Lidl", "opening_hours": "Mo-Sa 07:30-22:00; Su 09:00-22:00", "ref": "197", "shop": "supermarket", "website": "https://www.lidl.bg/"}}, {"type": "node", "id": 6610136856, "lat": 42.7009331, "lon": 23.3110641, "tags": {"check_date": "2025-07-05", "check_date:opening_hours": "2025-07-05", "indoor_seating": "yes", "name": "King's Bakery", "opening_hours": "Mo-Fr 07:00-19:00; Sa 08:00-15:00", "outdoor_seating": "no", "shop": "bakery"}}, {"type": "node", "id": 6620752333, "lat": 42.6982097, "lon": 23.3274541, "tags": {"brand": "Billa", "brand:wikidata": "Q537781", "name": "Billa", "name:en": "Billa", "opening_hours": "Mo-Su 07:30-22:00", "self_checkout": "yes", "shop": "supermarket", "website": "https://www.billa.bg/"}}, {"type": "node", "id": 6677512958, "lat": 42.7015232, "lon": 23.3206072, "tags": {"check_date": "2025-05-14", "check_date:opening_hours": "2025-05-14", "indoor_seating": "no", "name": "\u0418\u0440\u0430\u043a\u0441\u043a\u0430 \u0444\u0443\u0440\u043d\u0430", "opening_hours:signed": "no", "outdoor_seating": "no", "shop": "bakery", "takeaway": "only"}}, {"type": "node", "id": 6677512965, "lat": 42.7012303, "lon": 23.3223941, "tags": {"name": "Drinksmania", "opening_hours": "Mo-Sa 08:30-21:00; Su 10:00-20:00", "shop": "alcohol"}}, {"type": "node", "id": 6735549032, "lat": 42.7005936, "lon": 23.3279986, "tags": {"addr:city": "\u0421\u043e\u0444\u0438\u044f", "addr:housenumber": "67", "addr:postcode": "1000", "addr:street": "\u0415\u043a\u0437\u0430\u0440\u0445 \u0419\u043e\u0441\u0438\u0444", "drive_through": "no", "name:signed": "no", "opening_hours": "Mo-Fr 08:00-13:30,13:45-20:30; Sa 09:00-13:30,13:45-20:30; Su 10:00-13:30,13:45-20:00", "shop": "alcohol"}}, {"type": "node", "id": 6790699615, "lat": 42.7044398, "lon": 23.3102462, "tags": {"shop": "alcohol"}}, {"type": "node", "id": 6800521539, "lat": 42.7029855, "lon": 23.3289072, "tags": {"brand": "Alcohol & Tabakoff", "brand:wikidata": "Q111364479", "name": "Alcohol & Tabakoff", "opening_hours": "24/7", "shop": "alcohol", "website": "https://www.alcoholtabakoff.com/"}}, {"type": "node", "id": 6838878527, "lat": 42.6997368, "lon": 23.3245521, "tags": {"addr:housenumber": "18", "addr:street": "\u0421\u0435\u0440\u0434\u0438\u043a\u0430", "brand": "Alcohol & Tabakoff", "brand:wikidata": "Q111364479", "name": "Alcohol & Tabakoff", "opening_hours": "24/7", "shop": "alcohol", "website": "https://www.alcoholtabakoff.com/"}}, {"type": "node", "id": 6848475990, "lat": 42.6978269, "lon": 23.3214652, "tags": {"check_date": "2025-10-30", "indoor_seating": "no", "level": "-1", "name": "\u0422\u0440\u0430\u043a\u0438\u0439\u0441\u043a\u0430 \u0431\u0430\u043d\u0438\u0446\u0430", "opening_hours": "Mo-Fr 05:00-21:00; Sa,Su 06:00-20:00", "outdoor_seating": "no", "shop": "bakery", "takeaway": "only"}}, {"type": "node", "id": 6906517685, "lat": 42.6948755, "lon": 23.3218631, "tags": {"brand": "Lidl", "brand:wikidata": "Q108169047", "check_date": "2026-06-29", "name": "Lidl", "name:bg": "\u041b\u0438\u0434\u043b", "name:en": "Lidl", "opening_hours": "Mo-Sa 07:30-21:30; Su 09:30-21:00", "ref": "198", "self_checkout": "yes", "shop": "supermarket", "website": "https://www.lidl.bg/", "wheelchair": "yes"}}, {"type": "node", "id": 6915476786, "lat": 42.6929248, "lon": 23.3111658, "tags": {"indoor_seating": "no", "name": "\u0413\u043e\u043b\u0434\u044a\u043d \u0444\u0443\u0443\u0434\u0441", "opening_hours": "Mo-Sa 06:00-18:00", "outdoor_seating": "no", "shop": "bakery", "takeaway": "only", "wheelchair": "limited"}}, {"type": "node", "id": 6916793487, "lat": 42.6992466, "lon": 23.3161768, "tags": {"indoor_seating": "yes", "name": "Furna", "name:bg": "\u0424\u0443\u0440\u043d\u0430", "opening_hours": "Mo-Sa 08:00-17:00", "outdoor_seating": "yes", "shop": "bakery"}}, {"type": "node", "id": 7030783776, "lat": 42.6961174, "lon": 23.3184164, "tags": {"indoor_seating": "no", "name": "\u0416\u0438\u043a\u0438", "opening_hours": "Mo-Fr 07:00-18:00", "outdoor_seating": "no", "shop": "bakery", "takeaway": "only"}}, {"type": "node", "id": 7041343431, "lat": 42.6977166, "lon": 23.3160995, "tags": {"brand": "\u0411\u0443\u0440\u043b\u0435\u043a\u0441", "brand:wikidata": "Q124736705", "check_date:opening_hours": "2026-05-02", "name": "\u0411\u0443\u0440\u043b\u0435\u043a\u0441", "opening_hours": "Mo-Su 08:00-22:00", "shop": "supermarket"}}, {"type": "node", "id": 7181812285, "lat": 42.6921482, "lon": 23.317579, "tags": {"name": "\u0410\u0444\u0440\u043e\u043c\u0430\u0433\u0430\u0437\u0438\u043d", "opening_hours": "Mo-Fr 09:30-19:30", "shop": "coffee"}}, {"type": "node", "id": 7193298685, "lat": 42.6897652, "lon": 23.317866, "tags": {"check_date:opening_hours": "2024-07-23", "indoor_seating": "no", "name": "Caf\u00e9 & P\u00e2tisserie", "opening_hours:signed": "no", "outdoor_seating": "yes", "shop": "bakery"}}, {"type": "node", "id": 7293690380, "lat": 42.6929761, "lon": 23.3223076, "tags": {"check_date": "2025-12-30", "name": "Ibeco", "opening_hours": "Mo-Fr 09:00-20:00; Sa 10:00-20:00", "shop": "coffee"}}, {"type": "node", "id": 7533554875, "lat": 42.6979903, "lon": 23.3123277, "tags": {"name": "Bella Vista", "opening_hours": "Mo-Fr 07:00-22:00; Sa 08:00-22:00; Su 10:00-22:00", "shop": "alcohol"}}, {"type": "node", "id": 8043820336, "lat": 42.6981991, "lon": 23.3108259, "tags": {"brand": "\u0410\u0432\u0430\u043d\u0442\u0438", "brand:wikidata": "Q111364476", "check_date:opening_hours": "2025-05-28", "contact:facebook": "https://www.facebook.com/magaziniavanti/", "int_name": "Avanti", "name": "\u0410\u0432\u0430\u043d\u0442\u0438", "name:en": "Avanti", "opening_hours": "Mo-Sa 07:00-22:00; Su 08:00-21:00", "shop": "alcohol", "website": "https://avanti-bg.com/"}}, {"type": "node", "id": 8868329246, "lat": 42.7024684, "lon": 23.3154695, "tags": {"check_date": "2026-02-02", "name": "Orient Market", "opening_hours": "Mo-Sa 09:00-20:00; Su 09:30-18:00", "shop": "supermarket"}}, {"type": "node", "id": 8871585743, "lat": 42.6912893, "lon": 23.3119645, "tags": {"check_date": "2024-11-01", "name": "Tutto capsule", "opening_hours": "Mo-Fr 08:30-18:30", "shop": "coffee"}}, {"type": "node", "id": 9268383427, "lat": 42.6997378, "lon": 23.3218056}, {"type": "node", "id": 9268383428, "lat": 42.6997525, "lon": 23.3217183, "tags": {"door": "sliding", "entrance": "yes", "wheelchair": "yes"}}, {"type": "node", "id": 9708336393, "lat": 42.69832, "lon": 23.3212112, "tags": {"name:signed": "no", "opening_hours": "Mo-Su 07:30-22:00", "shop": "alcohol"}}, {"type": "node", "id": 9774757065, "lat": 42.7044712, "lon": 23.3242415, "tags": {"name": "ProMarket", "opening_hours": "Mo-Su 07:00-22:00", "shop": "supermarket"}}, {"type": "node", "id": 10197795986, "lat": 42.6949529, "lon": 23.3161591, "tags": {"branch": "\u041c\u0430\u043a\u0435\u0434\u043e\u043d\u0438\u044f", "check_date": "2026-04-14", "check_date:opening_hours": "2026-04-14", "name": "Cafemag", "opening_hours": "Mo-Su 08:00-20:00", "phone": "+359889474187", "shop": "coffee", "website": "https://cafemag.bg/"}}, {"type": "node", "id": 10933540962, "lat": 42.6910396, "lon": 23.3256176, "tags": {"check_date": "2023-05-28", "indoor_seating": "no", "internet_access": "no", "name": "King's Bakery", "opening_hours": "Mo-Fr 06:00-19:00; Sa 07:00-15:00", "outdoor_seating": "no", "payment:mastercard": "yes", "payment:visa": "yes", "shop": "bakery", "takeaway": "only", "wheelchair": "yes"}}, {"type": "node", "id": 11181821715, "lat": 42.7042281, "lon": 23.323884, "tags": {"addr:city": "\u0421\u043e\u0444\u0438\u044f", "addr:housenumber": "58", "addr:postcode": "1505", "addr:street": "\u0431\u0443\u043b. \u041a\u043d\u044f\u0433\u0438\u043d\u044f \u041c\u0430\u0440\u0438\u044f \u041b\u0443\u0438\u0437\u0430", "brand": "Lidl", "brand:wikidata": "Q108169047", "check_date": "2025-06-30", "name": "Lidl", "name:bg": "\u041b\u0438\u0434\u043b", "name:en": "Lidl", "opening_hours": "Mo-Sa 07:30-21:30; Su 09:00-21:00", "phone": "+359 2 906 6444", "ref": "218", "shop": "supermarket", "website": "https://lidl.bg"}}, {"type": "node", "id": 11301692105, "lat": 42.7050956, "lon": 23.331303, "tags": {"shop": "alcohol"}}, {"type": "node", "id": 11816938077, "lat": 42.6951197, "lon": 23.3184599, "tags": {"check_date": "2026-06-29", "name": "Lux Market", "opening_hours": "Mo-Su 08:30-22:00", "shop": "alcohol"}}, {"type": "node", "id": 11938894729, "lat": 42.7002212, "lon": 23.3218694, "tags": {"entrance": "emergency"}}, {"type": "node", "id": 12112083705, "lat": 42.7030585, "lon": 23.3223625, "tags": {"check_date:opening_hours": "2025-01-31", "name": "\u0421\u043e\u0444\u0438\u044f", "opening_hours:signed": "no", "shop": "supermarket"}}, {"type": "node", "id": 12152420890, "lat": 42.7003689, "lon": 23.3277999, "tags": {"indoor_seating": "yes", "name": "French bakery", "opening_hours": "Mo-Fr 07:30-19:30; Sa,Su 08:00-18:00", "outdoor_seating": "yes", "shop": "bakery"}}, {"type": "node", "id": 12152427402, "lat": 42.7002735, "lon": 23.3265839, "tags": {"indoor_seating": "yes", "name": "\u0413\u0430\u043b\u0435\u0442\u0430", "opening_hours": "08:00-18:00", "outdoor_seating": "no", "shop": "bakery"}}, {"type": "node", "id": 12152763371, "lat": 42.6995756, "lon": 23.3205707, "tags": {"check_date": "2025-11-11", "indoor_seating": "yes", "name": "\u0421\u043b\u0430\u0434\u043a\u043e \u0438 \u0441\u043e\u043b\u0435\u043d\u043e", "opening_hours": "06:30-20:00", "outdoor_seating": "yes", "shop": "bakery"}}, {"type": "node", "id": 12154981640, "lat": 42.6924988, "lon": 23.3208, "tags": {"indoor_seating": "yes", "name:signed": "no", "opening_hours": "Mo-Su 08:00-18:00", "outdoor_seating": "no", "shop": "bakery"}}, {"type": "node", "id": 12180401115, "lat": 42.6922583, "lon": 23.3321765, "tags": {"indoor_seating": "yes", "name": "\u0425\u043b\u0435\u0432\u043e\u0438\u0437\u043a\u0443\u0441\u0438\u0442\u0435\u043b\u043d\u0438\u0446\u0430", "opening_hours": "Mo-Fr 08:30-20:00; Sa 09:00-19:30", "outdoor_seating": "yes", "shop": "bakery"}}, {"type": "node", "id": 12180402093, "lat": 42.6933025, "lon": 23.3288606, "tags": {"brand": "Billa", "brand:wikidata": "Q537781", "check_date:opening_hours": "2026-02-13", "name": "Billa", "opening_hours": "Mo-Su 07:30-22:00", "shop": "supermarket"}}, {"type": "node", "id": 12245988976, "lat": 42.6931157, "lon": 23.3206342}, {"type": "node", "id": 12261180682, "lat": 42.6946362, "lon": 23.3196307, "tags": {"indoor_seating": "yes", "name": "Cinnamon House", "opening_hours": "Mo-Sa 11:00-19:00", "outdoor_seating": "no", "shop": "bakery"}}, {"type": "node", "id": 12269093225, "lat": 42.6948837, "lon": 23.3282466, "tags": {"indoor_seating": "no", "int_name": "The Bagel Shop", "name": "\u0413\u0435\u0432\u0440\u0435\u043a", "name:bg": "\u0413\u0435\u0432\u0440\u0435\u043a", "opening_hours": "Mo-Fr 09:30-17:00; Sa 10:00-16:00", "outdoor_seating": "no", "shop": "bakery", "takeaway": "only"}}, {"type": "node", "id": 12294000731, "lat": 42.6949241, "lon": 23.3164364, "tags": {"check_date": "2025-06-16", "indoor_seating": "no", "name": "\u041a\u0430\u043f\u0438\u0442\u0430\u043b", "opening_hours": "Mo-Sa 06:00-20:00", "outdoor_seating": "no", "shop": "bakery", "takeaway": "only"}}, {"type": "node", "id": 12386691838, "lat": 42.7006896, "lon": 23.3138486, "tags": {"indoor_seating": "no", "name": "\u041c\u0430\u0433\u0438\u044f", "opening_hours": "Mo-Sa 06:30-18:00", "outdoor_seating": "yes", "shop": "bakery"}}, {"type": "node", "id": 12409585847, "lat": 42.7020653, "lon": 23.3293297, "tags": {"indoor_seating": "no", "name": "\u041d\u0438\u043a\u0430\u0441", "opening_hours": "Mo-Fr 06:00-19:00; Sa 06:00-15:00", "outdoor_seating": "no", "shop": "bakery", "takeaway": "only"}}, {"type": "node", "id": 12409591570, "lat": 42.7035643, "lon": 23.3287687, "tags": {"indoor_seating": "no", "name:signed": "no", "opening_hours": "Mo-Fr 07:00-18:00; Sa 07:00-14:00", "outdoor_seating": "no", "shop": "bakery", "takeaway": "only"}}, {"type": "node", "id": 12409630983, "lat": 42.7039478, "lon": 23.3325217, "tags": {"name": "Green Planet", "opening_hours": "Mo-Fr 10:30-18:30; Sa 10:30-16:30", "shop": "general"}}, {"type": "node", "id": 12409644324, "lat": 42.7031778, "lon": 23.3288472, "tags": {"indoor_seating": "no", "name": "\u0422\u043e\u043d\u0438", "opening_hours": "Mo-Fr 09:00-19:30; Sa,Su 10:00-17:00", "outdoor_seating": "no", "shop": "bakery", "takeaway": "only"}}, {"type": "node", "id": 12436980272, "lat": 42.6988836, "lon": 23.3307834, "tags": {"name": "\u0412\u0435\u0440\u0434\u0435", "opening_hours": "Mo-Fr 08:30-17:00; Sa 10:00-15:00", "organic": "only", "shop": "supermarket"}}, {"type": "node", "id": 12436995928, "lat": 42.6998921, "lon": 23.3300702, "tags": {"name": "Coop", "opening_hours": "Mo-Fr 09:00-18:00", "organic": "only", "shop": "supermarket"}}, {"type": "node", "id": 12486729368, "lat": 42.7036127, "lon": 23.3238447, "tags": {"check_date:opening_hours": "2025-01-09", "indoor_seating": "yes", "name": "Golden Sweets & Bakery", "opening_hours:signed": "no", "outdoor_seating": "no", "shop": "bakery"}}, {"type": "node", "id": 12488598273, "lat": 42.6984706, "lon": 23.3269893, "tags": {"check_date:opening_hours": "2025-01-10", "indoor_seating": "no", "name:signed": "no", "opening_hours:signed": "no", "outdoor_seating": "no", "shop": "bakery", "takeaway": "only"}}, {"type": "node", "id": 12488600648, "lat": 42.7006114, "lon": 23.3281931, "tags": {"indoor_seating": "no", "name": "\u0425\u043b\u044f\u0431", "opening_hours": "Tu-Fr 09:00-19:00; Sa 09:00-17:00", "outdoor_seating": "no", "shop": "bakery", "takeaway": "only"}}, {"type": "node", "id": 12488604076, "lat": 42.6994935, "lon": 23.3269295, "tags": {"indoor_seating": "no", "name:signed": "no", "opening_hours": "Mo-Fr 07:00-17:00", "outdoor_seating": "no", "shop": "bakery", "takeaway": "only"}}, {"type": "node", "id": 12520756781, "lat": 42.7002724, "lon": 23.3246837, "tags": {"indoor_seating": "yes", "name:signed": "no", "opening_hours": "Mo-Fr 07:00-20:00; Sa 07:30-19:00; Su 08:00-19:00", "outdoor_seating": "no", "shop": "bakery"}}, {"type": "node", "id": 12546572027, "lat": 42.7020197, "lon": 23.321689, "tags": {"name": "\u0412\u0435\u0440\u0434\u0440\u0430 \u043a\u0430\u0444\u0435", "opening_hours": "Mo-Fr 08:00-18:00; Sa 09:00-18:00", "shop": "coffee"}}, {"type": "node", "id": 12652429886, "lat": 42.6982111, "lon": 23.3194491, "tags": {"check_date:opening_hours": "2025-03-11", "indoor_seating": "no", "name": "\u0422\u0440\u0430\u043a\u0438\u0439\u0441\u043a\u0430 \u0431\u0430\u043d\u0438\u0446\u0430", "opening_hours:signed": "no", "outdoor_seating": "no", "shop": "bakery", "takeaway": "only"}}, {"type": "node", "id": 12656799928, "lat": 42.6991495, "lon": 23.3194933, "tags": {"indoor_seating": "no", "name": "\u0414\u043e\u043c\u0430\u0448\u043d\u0430\u0442\u0430 \u043f\u0435\u043a\u0430\u0440\u043d\u0430", "opening_hours": "Mo-Fr 07:00-18:30", "outdoor_seating": "no", "shop": "bakery", "takeaway": "only"}}, {"type": "node", "id": 12659838862, "lat": 42.7008568, "lon": 23.3191698, "tags": {"check_date": "2025-11-11", "indoor_seating": "no", "name": "\u0418\u043b\u044e\u0437\u0438\u044f", "opening_hours": "Mo-Sa 08:00-18:00", "outdoor_seating": "no", "shop": "bakery", "takeaway": "only"}}, {"type": "node", "id": 12662903948, "lat": 42.697498, "lon": 23.3156275, "tags": {"check_date:opening_hours": "2026-05-02", "name": "Kafence.bg", "opening_hours": "Mo-Fr 09:00-19:00; Sa 10:00-18:00", "shop": "coffee"}}, {"type": "node", "id": 12840206971, "lat": 42.7046438, "lon": 23.3228803, "tags": {"indoor_seating": "yes", "name": "\u0421\u043b\u0430\u0434\u044a\u043a \u0441\u0432\u044f\u0442", "opening_hours": "Mo-Su,PH 07:00-20:00", "outdoor_seating": "yes", "shop": "bakery"}}, {"type": "node", "id": 12840217556, "lat": 42.7049522, "lon": 23.3183247, "tags": {"indoor_seating": "no", "name": "\u0422\u043e\u0447\u043d\u0438 \u0438 \u0441\u043e\u0447\u043d\u0438", "opening_hours": "Mo-Fr 07:00-17:00; Sa 07:00-14:00", "outdoor_seating": "no", "shop": "bakery", "takeaway": "only"}}, {"type": "node", "id": 12981853401, "lat": 42.7030535, "lon": 23.3121034, "tags": {"name": "La Dolce Vita", "opening_hours": "Mo-Fr 08:30-18:00; Sa 09:00-13:00", "shop": "coffee"}}, {"type": "node", "id": 13055875989, "lat": 42.7004149, "lon": 23.3175842, "tags": {"brand": "\u0410\u0432\u0430\u043d\u0442\u0438", "brand:wikidata": "Q111364476", "name": "\u0410\u0432\u0430\u043d\u0442\u0438", "name:bg": "\u0410\u0432\u0430\u043d\u0442\u0438", "name:en": "Avanti", "opening_hours": "Mo-Sa 07:00-21:00; Su 08:00-20:00", "shop": "alcohol"}}, {"type": "node", "id": 13055877996, "lat": 42.7003944, "lon": 23.3175601, "tags": {"name": "\u0410\u043b\u0431\u0438", "opening_hours": "Mo-Sa 07:00-18:00", "shop": "bakery"}}, {"type": "node", "id": 13297086600, "lat": 42.7003438, "lon": 23.3218831, "tags": {"check_date": "2025-12-17", "name": "\u041a\u042a\u0420\u041a-\u043d\u0430", "note": "\u0421\u0442\u0430\u0432\u0430 \u0432\u044a\u043f\u0440\u043e\u0441 \u0437\u0430 \u0431\u0443\u0434\u043a\u0430\u0442\u0430, \u0432 \u043a\u043e\u044f\u0442\u043e \u043f\u0440\u043e\u0434\u0430\u0432\u0430\u0442 \u0433\u0435\u0432\u0440\u0435\u0446\u0438 \u0438 \u0434\u0440.", "opening_hours": "Mo-Fr 08:00-19:00", "shop": "bakery", "source": "MAF;survey"}}, {"type": "node", "id": 13356084073, "lat": 42.6980185, "lon": 23.3226328}, {"type": "node", "id": 13356084075, "lat": 42.6980598, "lon": 23.3223808}, {"type": "node", "id": 13971656040, "lat": 42.695821, "lon": 23.3098823}, {"type": "node", "id": 13971656042, "lat": 42.6956891, "lon": 23.3100071}, {"type": "node", "id": 13971656045, "lat": 42.6955154, "lon": 23.3091713}, {"type": "node", "id": 13971656046, "lat": 42.6956166, "lon": 23.3093692}, {"type": "node", "id": 13971656048, "lat": 42.6954753, "lon": 23.3092092}, {"type": "node", "id": 13971656049, "lat": 42.6954325, "lon": 23.3092631}, {"type": "node", "id": 13971656050, "lat": 42.6954279, "lon": 23.3092541}, {"type": "way", "id": 48337730, "nodes": [614047493, 9268383428, 9268383427, 614047494, 1854248345, 614047495, 11938894729, 614047497, 1854248348, 614047493], "tags": {"addr:city": "\u0421\u043e\u0444\u0438\u044f", "addr:housenumber": "25", "addr:street": "\u0431\u0443\u043b. \u041a\u043d\u044f\u0433\u0438\u043d\u044f \u041c\u0430\u0440\u0438\u044f \u041b\u0443\u0438\u0437\u0430", "alt_name": "Centralni Hali", "alt_name:bg": "\u0426\u0435\u043d\u0442\u0440\u0430\u043b\u043d\u0438 \u0441\u043e\u0444\u0438\u0439\u0441\u043a\u0438 \u0445\u0430\u043b\u0438", "alt_name:de": "Zentralmarkthalle", "alt_name:en": "Central Market Hall", "alt_name:es": "Mercado central", "alt_name:fr": "March\u00e9 central", "branch": "\u0421\u043e\u0444\u0438\u044f-\u0426\u0435\u043d\u0442\u044a\u0440", "brand": "Kaufland", "brand:wikidata": "Q685967", "building": "marketplace", "building:wikidata": "Q190675", "building:wikimedia_commons": "Category:Central Market Hall in Sofia", "building:wikipedia": "bg:\u0426\u0435\u043d\u0442\u0440\u0430\u043b\u043d\u0438 \u0441\u043e\u0444\u0438\u0439\u0441\u043a\u0438 \u0445\u0430\u043b\u0438", "check_date": "2025-12-17", "diet:halal": "yes", "image": "https://photos.app.goo.gl/akB4ssQVV3i3g4Qr7", "name": "Kaufland", "name:bg": "\u041a\u0430\u0443\u0444\u043b\u0430\u043d\u0434", "name:en": "Kaufland", "opening_date": "2024-05-23", "opening_hours": "Mo-Su 07:00-22:00", "ref": "BG6400", "self_checkout": "yes", "shop": "supermarket", "website": "https://www.kaufland.bg/moyat-kaufland/uslugi/filiali/sofia-center-6400.html", "wheelchair": "yes"}}, {"type": "way", "id": 157740233, "nodes": [303942550, 303942578, 1699937876, 1699937869, 303942584, 1699937850, 1699937847, 303942661, 303942662, 4140664992, 1699936508, 13356084073, 13356084075, 303942555, 4102651332, 4102651333, 303942550], "tags": {"addr:city": "\u0421\u043e\u0444\u0438\u044f", "building": "mall", "building:levels": "5", "image": "https://photos.app.goo.gl/rVyTgFTDE5kEzc3f8", "name": "\u0426\u0423\u041c", "name:de": "ZUM", "name:en": "TZUM", "official_name": "\u0426\u0435\u043d\u0442\u0440\u0430\u043b\u0435\u043d \u0443\u043d\u0438\u0432\u0435\u0440\u0441\u0430\u043b\u0435\u043d \u043c\u0430\u0433\u0430\u0437\u0438\u043d", "official_name:de": "Zentralkaufhaus", "official_name:en": "Central Department Store", "opening_hours": "Mo-Sa 10:00-20:00; Su 11:00-19:00", "shop": "mall", "website": "http://www.tzum.bg/", "wikidata": "Q136504", "wikimedia_commons": "Category:Central Department Store, Sofia", "wikipedia": "en:Central Department Store (Sofia)"}}, {"type": "way", "id": 330980888, "nodes": [3380245788, 4149979410, 13971656042, 13971656040, 3380245789, 4149979411, 13971656046, 13971656045, 13971656048, 13971656050, 13971656049, 3380245791, 3380245788], "tags": {"addr:city": "\u0421\u043e\u0444\u0438\u044f", "addr:housenumber": "62\u0410", "addr:postcode": "1606", "addr:street": "\u0431\u0443\u043b. \u0413\u0435\u043d. \u0421\u043a\u043e\u0431\u0435\u043b\u0435\u0432", "brand": "Lidl", "brand:wikidata": "Q108169047", "building": "retail", "building:levels": "1", "name": "Lidl", "name:bg": "\u041b\u0438\u0434\u043b", "name:en": "Lidl", "opening_hours": "Mo-Sa 07:30-21:30; Su 08:00-21:00", "operator": "Lidl", "ref": "175", "shop": "supermarket", "smoking": "no", "website": "https://www.lidl.bg/s/bg-BG/magazini/sofiya/bul-skobelev-62a/", "wheelchair": "yes"}}, {"type": "way", "id": 1323380087, "nodes": [4509356535, 4509356532, 4509356530, 12245988976, 4509356535], "tags": {"building": "no", "check_date:opening_hours": "2025-01-31", "name": "\u0425\u0430\u0432\u0430\u043d\u0430", "opening_hours:signed": "no", "shop": "mall", "toilets": "no"}}]}