{"version": 0.6, "generator": "Overpass API 0.7.62.11 87bfad18", "osm3s": {"timestamp_osm_base": "2026-07-02T20:22:02Z", "copyright": "The data included in this document is from www.openstreetmap.org. The data is made available under ODbL."}, "elements": [{"type": "node", "id": 648459390, "lat": 41.3830486, "lon": 2.178292, "tags": {"addr:housenumber": "20", "addr:postcode": "08002", "addr:street": "Carrer de la Dagueria", "amenity": "bar", "name": "Zim", "opening_hours": "Mo-Su 18:00-23:00"}}, {"type": "node", "id": 672763035, "lat": 41.3846643, "lon": 2.1702706, "tags": {"amenity": "bar", "name": "Boadas", "wikidata": "Q122962985"}}, {"type": "node", "id": 818891229, "lat": 41.381599, "lon": 2.1744854, "tags": {"addr:housenumber": "27", "addr:street": "Carrer de la Boqueria", "amenity": "bar", "internet_access": "wlan", "internet_access:access": "customers", "internet_access:fee": "no", "name": "Travel Bar"}}, {"type": "node", "id": 824465388, "lat": 41.3754806, "lon": 2.1678977, "tags": {"amenity": "bar", "check_date": "2026-01-12", "name": "La Confiteria", "website": "http://confiteria.cat/", "wikidata": "Q47170821", "wikimedia_commons": "Category:La Confiteria (Barcelona)", "wikipedia": "ca:La Confiteria (Barcelona)"}}, {"type": "node", "id": 827585077, "lat": 41.3830229, "lon": 2.1706642, "tags": {"addr:city": "Barcelona", "addr:housenumber": "7", "addr:postcode": "08001", "addr:street": "Carrer d'en Xucl\u00e0", "amenity": "bar", "check_date": "2025-09-29", "drink:club-mate": "yes", "name": "Bar Mirinda"}}, {"type": "node", "id": 1082354548, "lat": 41.3798943, "lon": 2.17677, "tags": {"amenity": "bar", "name": "Cerveceria El Tequila"}}, {"type": "node", "id": 1314943380, "lat": 41.3870865, "lon": 2.1803497, "tags": {"addr:city": "Barcelona", "addr:housenumber": "35", "addr:postcode": "08003", "addr:street": "Carrer dels Carders", "air_conditioning": "no", "alt_name": "Espai Mescladis", "amenity": "bar", "brewery": "yes", "check_date": "2023-10-29", "contact:facebook": "espaimescladis", "contact:instagram": "https://www.instagram.com/espaismescladis", "drink:club-mate": "served", "email": "info@mescladis.org", "internet_access": "wlan", "internet_access:fee": "no", "internet_access:ssid": "Mescladis", "name": "Mesclad\u00eds del Pou", "opening_hours": "Mo-Fr 13:00-21:00; Sa,Su 11:00-21:00", "outdoor_seating": "yes", "payment:cash": "yes", "payment:mastercard": "yes", "payment:visa": "yes", "phone": "+34 933198732", "website": "https://www.mescladis.org/", "wheelchair": "yes"}}, {"type": "node", "id": 1497595784, "lat": 41.3857384, "lon": 2.1736392, "tags": {"addr:city": "Barcelona", "addr:housenumber": "3", "addr:postcode": "08002", "addr:street": "Carrer de Montsi\u00f3", "amenity": "bar", "email": "4gats@4gats.com", "name": "4Gats", "name:ca": "Els Quatre Gats", "name:en": "Els Quatre Gats", "name:ru": "\u041a\u0430\u0444\u0435 4 \u043a\u043e\u0442\u0430", "name:zh": "\u56db\u96bb\u8c93 \u5496\u5561\u9928", "old_name": "Els Quatre Gats", "opening_hours": "Tu 11:00-17:00; We-Fr 11:00-24:00; Sa 12:00-00:00; Su 12:00-17:00", "phone": "+34 933024140", "toilets:wheelchair": "no", "website": "https://www.4gats.com/", "wheelchair": "limited", "wikidata": "Q1333395", "wikimedia_commons": "Category:Els Quatre Gats", "wikipedia": "ca:Els Quatre Gats"}}, {"type": "node", "id": 1526164858, "lat": 41.3819082, "lon": 2.1653476, "tags": {"addr:city": "Barcelona", "addr:housenumber": "24", "addr:street": "Carrer de Ferlandina", "amenity": "bar", "internet_access": "wlan", "internet_access:fee": "no", "name": "Bar Fidel", "website": "http://bar-fidel.com/"}}, {"type": "node", "id": 1595440421, "lat": 41.3816466, "lon": 2.1881927, "tags": {"addr:housenumber": "13", "addr:postcode": "08003", "addr:street": "Ginebra", "amenity": "bar", "name": "Bar Jai-Ca Barceloneta", "website": "http://guiadigital.barcelonetapladebarris.cat/markets/view/bar-jai-ca"}}, {"type": "node", "id": 1867973794, "lat": 41.3875681, "lon": 2.1811672, "tags": {"amenity": "bar", "name": "Bar del Convent"}}, {"type": "node", "id": 2178210108, "lat": 41.3823021, "lon": 2.1659029, "tags": {"amenity": "bar", "name": "Casa Amirall"}}, {"type": "node", "id": 2247741140, "lat": 41.3819109, "lon": 2.1767686, "tags": {"addr:housenumber": "2", "addr:postcode": "08002", "addr:street": "Carrer del Pas de l'Ensenyan\u00e7a", "amenity": "bar", "name": "El Paraigua", "source": "+34 933 02 11 31", "website": "https://www.elparaigua.com/"}}, {"type": "node", "id": 2247759627, "lat": 41.3867234, "lon": 2.1839669, "tags": {"addr:housenumber": "26", "addr:street": "Passeig de Picasso", "amenity": "bar", "name": "Colombo", "source": "93 310 75 50"}}, {"type": "node", "id": 2247764339, "lat": 41.3823214, "lon": 2.1730348, "tags": {"addr:housenumber": "14", "addr:street": "Carrer Roca", "amenity": "bar", "name": "Blondie Bar", "source": "+34 636 81 55 81"}}, {"type": "node", "id": 2247768611, "lat": 41.3774595, "lon": 2.1735544, "tags": {"addr:housenumber": "11", "addr:street": "Carrer de l'Est", "amenity": "bar", "cuisine": "tapas", "name": "Cassette Bar", "opening_hours": "Fr-Sa 19:00-03:00; Mo-Th 19:00-02:30", "source": "+34 933 02 85 09", "website": "https://myspace.com/cassettebarbarcelona"}}, {"type": "node", "id": 2457866964, "lat": 41.3797385, "lon": 2.1751538, "tags": {"amenity": "bar", "harassment_prevention": "No Callem", "name": "Los Tarantos", "sexual_antiharassment_policy": "yes", "sexual_antiharassment_policy:name": "NoCallem"}}, {"type": "node", "id": 2465712772, "lat": 41.3806481, "lon": 2.1789874, "tags": {"addr:housenumber": "5", "addr:postcode": "08002", "addr:street": "Carrer de Milans", "amenity": "bar", "name": "Manchester Bar", "opening_hours": "Mo-Su 00:00-02:30,18:30-24:00; Fr,Sa 00:00-03:00,18:30-24:00"}}, {"type": "node", "id": 2479390681, "lat": 41.3801499, "lon": 2.1768532, "tags": {"addr:city": "Barcelona", "addr:housenumber": "49", "addr:postcode": "08002", "addr:street": "Carrer dels Escudellers", "amenity": "bar", "name": "Marula Caf\u00e8", "phone": "+34 933 18 76 90", "website": "https://marulacafe.com/", "wheelchair": "yes"}}, {"type": "node", "id": 2628206294, "lat": 41.377316, "lon": 2.1750649, "tags": {"amenity": "bar", "name": "Pastis"}}, {"type": "node", "id": 2650437195, "lat": 41.3860376, "lon": 2.1674444, "tags": {"addr:city": "Barcelona", "addr:housenumber": "3", "addr:postcode": "08002", "addr:street": "Carrer de Bergara", "amenity": "bar", "brand": "Belushi's", "brand:wikidata": "Q17985834", "name": "Belushi's", "website": "https://www.belushis.com/bars/barcelona"}}, {"type": "node", "id": 2652014534, "lat": 41.3895384, "lon": 2.1729617, "tags": {"addr:city": "Barcelona", "addr:housenumber": "5", "addr:postcode": "08010", "addr:street": "Pla\u00e7a d'Urquinaona", "amenity": "bar", "contact:website": "http://www.thegeorgepayne.com/", "name": "The George Payne", "opening_hours": "Mo-We 13:00-02:00; Th, Su 13:00-02:30; Fr, Sa 13:00-03:00", "wheelchair": "yes"}}, {"type": "node", "id": 2721077740, "lat": 41.3848861, "lon": 2.1667078, "tags": {"amenity": "bar", "indoor_seating": "yes", "name": "Bar Veni", "old_name": "Mucci's", "outdoor_seating": "yes"}}, {"type": "node", "id": 2821566629, "lat": 41.3813306, "lon": 2.1801063, "tags": {"addr:housenumber": "21", "addr:postcode": "08002", "addr:street": "Carrer d'en Gign\u00e0s", "amenity": "bar", "contact:website": "http://milkbarcelona.com/", "cuisine": "spanish", "internet_access": "wlan", "name": "Milk", "name:en": "Milk Bar & Bistro"}}, {"type": "node", "id": 2848210517, "lat": 41.3842949, "lon": 2.1827139, "tags": {"addr:city": "Barcelona", "addr:housenumber": "12", "addr:postcode": "08003", "addr:street": "Passeig del Born", "amenity": "bar", "check_date": "2024-07-20", "cuisine": "french", "email": "crepsalbornbcn@gmail.com", "internet_access": "wlan", "name": "Creps al Born", "name:ca": "Creps al Born", "opening_hours": "Mo-Th 17:30-02:30; Fr 17:30-03:00; Sa 12:00-03:00; Su 12:00-02:30", "phone": "+34 932690325", "website": "https://www.crepsalbornbcn.com/"}}, {"type": "node", "id": 2880793689, "lat": 41.3833249, "lon": 2.1650876, "tags": {"amenity": "bar", "name": "Betty Ford's"}}, {"type": "node", "id": 2885926951, "lat": 41.3770984, "lon": 2.1680653, "tags": {"amenity": "bar", "name": "Makinavaja bar"}}, {"type": "node", "id": 2886033126, "lat": 41.3773354, "lon": 2.1670705, "tags": {"amenity": "bar", "name": "Freedonia"}}, {"type": "node", "id": 2886036696, "lat": 41.3773659, "lon": 2.1674358, "tags": {"amenity": "bar", "name": "Bar Lupita"}}, {"type": "node", "id": 2890108535, "lat": 41.3828225, "lon": 2.1683796, "tags": {"amenity": "bar", "name": "Raval bar", "name:ca": "Raval bar"}}, {"type": "node", "id": 2890111608, "lat": 41.3770172, "lon": 2.168176, "tags": {"addr:city": "Barcelona", "addr:housenumber": "57", "addr:street": "Carrer de les Carretes", "amenity": "bar", "lgbtq": "primary", "name": "La Casa de la Pradera", "opening_hours": "Th 19:00-02:00; Fr-Sa 19:00-03:00; Su 17:30-23:30"}}, {"type": "node", "id": 2890111611, "lat": 41.3845612, "lon": 2.1799122, "tags": {"amenity": "bar", "name": "Lilipep"}}, {"type": "node", "id": 2892028392, "lat": 41.3825502, "lon": 2.16647, "tags": {"addr:housenumber": "27", "addr:street": "Pla\u00e7a dels \u00c0ngels", "amenity": "bar", "name": "Do\u00f1a Rosa", "opening_hours": "Mo-Th 10:30-00:00; Fr 10:30-01:00; Sa 10:00-01:00; Su 10:00-00:00"}}, {"type": "node", "id": 2892028393, "lat": 41.3825992, "lon": 2.1665452, "tags": {"addr:housenumber": "23", "addr:postcode": "08001", "addr:street": "Carrer de Ferlandina", "amenity": "bar", "cuisine": "burger;sandwich;tapas", "diet:vegan": "yes", "internet_access": "wlan", "name": "Kino", "opening_hours": "Mo-Su 11:00-02:00", "outdoor_seating": "yes", "phone": "+34 931 798 409", "smoking": "separated", "website": "https://kinobcn.com/", "website:menu": "https://kinobcn.com/menu/"}}, {"type": "node", "id": 2892037991, "lat": 41.3777666, "lon": 2.1707826, "tags": {"amenity": "bar", "name": "\u00c1mbar", "phone": "+34 628087401", "toilets:wheelchair": "yes", "wheelchair": "yes"}}, {"type": "node", "id": 2892037992, "lat": 41.3779709, "lon": 2.1707303, "tags": {"amenity": "bar", "name": "La Paciencia", "toilets:wheelchair": "no", "wheelchair": "limited"}}, {"type": "node", "id": 2892037993, "lat": 41.3782418, "lon": 2.1712432, "tags": {"addr:city": "Barcelona", "addr:housenumber": "65", "addr:postcode": "08001", "addr:street": "Carrer de Sant Pau", "amenity": "bar", "contact:phone": "+34 934 42 72 63", "name": "Bar Marsella"}}, {"type": "node", "id": 3074796331, "lat": 41.3801259, "lon": 2.1746721, "tags": {"addr:floor": "1st", "addr:housenumber": "3", "addr:street": "Pla\u00e7a Reial", "amenity": "bar", "name": "Barcelona Pipa Club", "opening_hours": "Mo-Su 23:00-04:00", "wikidata": "Q116871788", "wikimedia_commons": "Category:Pla\u00e7a Reial 3"}}, {"type": "node", "id": 3101487170, "lat": 41.3806296, "lon": 2.167222, "tags": {"addr:city": "Barcelona", "addr:housenumber": "4-6", "addr:postcode": "08001", "addr:street": "Carrer de la Riera Alta", "amenity": "bar", "name": "Marmalade"}}, {"type": "node", "id": 3101523329, "lat": 41.3797882, "lon": 2.1662643, "tags": {"addr:city": "Barcelona", "addr:housenumber": "116", "addr:postcode": "08001", "addr:street": "Carrer del Carme", "amenity": "bar", "name": "Zelig"}}, {"type": "node", "id": 3106031830, "lat": 41.3758411, "lon": 2.1660642, "tags": {"amenity": "bar", "contact:email": "barolimpiabarcelona@gmail.com", "cuisine": "tapas", "name": "Bar Olimpia", "smoking": "no", "source": "survey", "wheelchair": "limited"}}, {"type": "node", "id": 3106121029, "lat": 41.3757556, "lon": 2.1659373, "tags": {"amenity": "bar", "diet:vegan": "yes", "diet:vegetarian": "yes", "name": "Jonny Aldana", "source": "survey", "website": "https://www.jonnyaldana.com/"}}, {"type": "node", "id": 3115377554, "lat": 41.3912898, "lon": 2.1666197}, {"type": "node", "id": 3115377555, "lat": 41.3913362, "lon": 2.1665546}, {"type": "node", "id": 3115377557, "lat": 41.3913481, "lon": 2.1666995}, {"type": "node", "id": 3115377558, "lat": 41.3913967, "lon": 2.1666327}, {"type": "node", "id": 3353656154, "lat": 41.3819598, "lon": 2.1687235, "tags": {"amenity": "bar", "name": "Silenus"}}, {"type": "node", "id": 3491476947, "lat": 41.3856036, "lon": 2.1800221, "tags": {"addr:city": "Barcelona", "addr:housenumber": "2", "addr:street": "Carrer de Montcada", "amenity": "bar", "atm": "no", "cuisine": "tapas", "description": "Tapas a bar", "food": "yes", "indoor_seating": "yes", "internet_access": "wlan", "name": "Bar del Pla", "opening_hours": "Mo-Th 12:00-23:00; Fr-Sa 12:00-00:00", "outdoor_seating": "yes", "smoking": "outside", "source": "Local knowledge", "website": "https://www.bardelpla.cat/", "wheelchair": "limited"}}, {"type": "node", "id": 3688187084, "lat": 41.3816344, "lon": 2.1888164, "tags": {"addr:housenumber": "20", "addr:street": "Carrer de Ginebra", "amenity": "bar", "name": "Chito's Bar", "phone": "+34 932682373"}}, {"type": "node", "id": 3797542358, "lat": 41.379361, "lon": 2.1757821, "tags": {"addr:city": "Barcelona", "addr:housename": "Nou de Zurbano 8", "addr:housenumber": "7", "addr:postcode": "08002", "addr:street": "Nou de Zurbano", "amenity": "bar", "designation": "Cocktail bar and Social Club", "int_name": "Raimon Social Club", "internet_access": "wlan", "internet_access:fee": "no", "name": "Raimon Social Club", "name:ca": "Raimon Social Club", "source": "http://barcelona-guide.info", "website": "http://raimonclub.com"}}, {"type": "node", "id": 3979813162, "lat": 41.3739672, "lon": 2.1662116, "tags": {"addr:housenumber": "22", "addr:street": "Carrer de Salv\u00e0", "amenity": "bar", "name": "Spin Bites"}}, {"type": "node", "id": 3987217352, "lat": 41.382757, "lon": 2.1785313, "tags": {"addr:city": "Barcelona", "addr:housenumber": "1", "addr:postcode": "08002", "addr:street": "Carrer de la Palma de Sant Just", "amenity": "bar", "name": "Ginger", "opening_hours": "Tu-Sa 19:30-02:30", "phone": "+34 93 310 53 09", "website": "http://ginger.cat/GINGER_BARCELONA/welcome_to_Ginger_Barcelona.html"}}, {"type": "node", "id": 4029816789, "lat": 41.3845299, "lon": 2.1805557, "tags": {"addr:housenumber": "6", "addr:street": "Carrer dels Banys Vells", "amenity": "bar", "cuisine": "arab;argentinian", "entrance": "yes", "mobile": "+34647737707", "name": "Rubi Bar", "toilets:wheelchair": "no", "wheelchair": "limited"}}, {"type": "node", "id": 4130741098, "lat": 41.3850373, "lon": 2.1662783, "tags": {"addr:housenumber": "70", "addr:street": "Carrer dels Tallers", "amenity": "bar", "name": "Cerveceria La Surena"}}, {"type": "node", "id": 4137545690, "lat": 41.3886077, "lon": 2.1801454, "tags": {"addr:housenumber": "10", "addr:street": "Carrer de les Basses de Sant Pere", "amenity": "bar", "name": "Paspartu"}}, {"type": "node", "id": 4148553589, "lat": 41.3787719, "lon": 2.1724896, "tags": {"addr:street": "Carrer del Marqu\u00e8s de Barber\u00e0", "amenity": "bar", "name": "Shenanigans Irish Pub"}}, {"type": "node", "id": 4172561990, "lat": 41.3809266, "lon": 2.1754554, "tags": {"addr:housenumber": "9", "addr:street": "Carrer d'en Rauric", "amenity": "bar", "name": "First bar"}}, {"type": "node", "id": 4190446294, "lat": 41.380071, "lon": 2.1801819, "tags": {"addr:housenumber": "13", "addr:postcode": "08002", "addr:street": "Carrer de la Merc\u00e8", "amenity": "bar", "internet_access": "wlan", "name": "El Bomb\u00f3n"}}, {"type": "node", "id": 4190964190, "lat": 41.3886068, "lon": 2.1801679, "tags": {"addr:housenumber": "10", "addr:street": "Carrer de les Basses de Sant Pere", "amenity": "bar", "name": "Ale&Hop", "opening_hours": "Mo-We 17:00-01:30; Th 17:00-02:30; Fr 17:00-03:00; Sa 13:00-03:00; Su 13:00-01:30"}}, {"type": "node", "id": 4192258489, "lat": 41.3849952, "lon": 2.182803, "tags": {"amenity": "bar", "name": "nose", "toilets:wheelchair": "no", "wheelchair": "yes"}}, {"type": "node", "id": 4199273996, "lat": 41.3850625, "lon": 2.1661014, "tags": {"amenity": "bar", "name": "The Shamrock"}}, {"type": "node", "id": 4254675492, "lat": 41.387328, "lon": 2.1679739, "tags": {"addr:housenumber": "37", "addr:postcode": "08007", "addr:street": "Ronda de la Universitat", "amenity": "bar", "cuisine": "burger", "email": "latavernadebarcelona@hotmail.com", "name": "La tavern de barcelona", "name:ca": "La Taverna de Barcelona", "name:es": "La Taverna de Barcelona", "phone": "+34 933 01 76 53"}}, {"type": "node", "id": 4321293689, "lat": 41.3848364, "lon": 2.1830531, "tags": {"addr:housenumber": "30", "addr:postcode": "08003", "addr:street": "Passeig del Born", "amenity": "bar", "name": "Cactus Bar"}}, {"type": "node", "id": 4321668169, "lat": 41.3780728, "lon": 2.1750758, "tags": {"addr:housenumber": "3", "addr:postcode": "08001", "addr:street": "Carrer de l'Arc del Teatre", "amenity": "bar", "harassment_prevention": "No Callem", "name": "Moog", "sexual_antiharassment_policy": "yes", "sexual_antiharassment_policy:name": "NoCallem"}}, {"type": "node", "id": 4326986691, "lat": 41.3820911, "lon": 2.1685814, "tags": {"amenity": "bar", "name": "Bar Victoria"}}, {"type": "node", "id": 4349886673, "lat": 41.38047, "lon": 2.1770302, "tags": {"addr:housenumber": "3", "addr:street": "Carrer de n'Arai", "amenity": "bar", "indoor_seating": "yes", "name": "Dionisos", "outdoor_seating": "yes", "wheelchair": "yes"}}, {"type": "node", "id": 4349888455, "lat": 41.3805356, "lon": 2.1770355, "tags": {"addr:housenumber": "3", "addr:street": "Carrer de n'Arai", "amenity": "bar", "name": "Bar Lisa"}}, {"type": "node", "id": 4387192496, "lat": 41.385131, "lon": 2.1778655, "tags": {"addr:city": "Barcelona", "addr:floor": "8", "addr:housenumber": "30", "addr:postcode": "08003", "addr:street": "Via Laietana", "amenity": "bar", "bar": "yes", "brewery": "various", "check_date": "2024-08-29", "cuisine": "regional;mediterranean", "description": "En el octavo piso de nuestro hotel, sobre las animadas calles del Barrio G\u00f3tico, La Terraza del Central te invita a disfrutar de cocina mediterr\u00e1nea al fresco, exquisitos c\u00f3cteles y vistas impresionantes. Con un ambiente relajado, es el lugar perfecto par", "email": "laterraza@grandhotelcentral.com", "image": "https://www.grandhotelcentral.com/data/webp/white.png-e2293a1c670abc191fcc4f21b53287e6.webp", "name": "La Terraza del Central", "opening_hours": "Mo-Su 09:00-24:00", "opening_hours:kitchen": "Cocina mediterr\u00e1nea al fresco, exquisitos c\u00f3cteles", "payment:cash": "yes", "payment:contactless": "yes", "payment:credit_cards": "yes", "payment:debit_cards": "yes", "payment:mastercard": "yes", "payment:visa": "yes", "phone": "+34 932 957 900", "reservation": "recommended", "website": "https://www.grandhotelcentral.com/es/rooftop-barcelona/", "website:menu": "https://www.grandhotelcentral.com/downloads/laterrazadelcentralmenu.pdf"}}, {"type": "node", "id": 4406319999, "lat": 41.3841403, "lon": 2.1829077, "tags": {"addr:housenumber": "9", "addr:street": "Carrer de la Vidrieria", "amenity": "bar", "name": "n\u00famero nueve", "name:es": "n\u00famero nueve"}}, {"type": "node", "id": 4409361092, "lat": 41.3804417, "lon": 2.1809918, "tags": {"addr:housenumber": "7", "addr:postcode": "08002", "addr:street": "Passeig de Colom", "amenity": "bar", "name": "Kulas"}}, {"type": "node", "id": 4442168589, "lat": 41.3839256, "lon": 2.1774566, "tags": {"addr:housenumber": "13", "addr:street": "Carrer del Veguer", "amenity": "bar", "name": "L'Antiquari", "name:ca": "L'Antiquari", "name:es": "L'Antiquari"}}, {"type": "node", "id": 4548292694, "lat": 41.3772748, "lon": 2.1749382, "tags": {"addr:city": "Barcelona", "addr:housenumber": "9", "addr:street": "Carrer de Montserrat", "amenity": "bar", "name:en": "El cangrejo", "opening_hours": "Fr-Sa 23:00-03:30"}}, {"type": "node", "id": 4571972390, "lat": 41.3789958, "lon": 2.174867, "tags": {"amenity": "bar", "name": "tablao flamenco", "name:es": "tablao flamenco"}}, {"type": "node", "id": 4646610690, "lat": 41.3869809, "lon": 2.1802947, "tags": {"addr:housenumber": "31", "addr:street": "Carrer dels Carders", "amenity": "bar", "name": "Space Cowboy"}}, {"type": "node", "id": 4646610691, "lat": 41.3803151, "lon": 2.1808841, "tags": {"addr:housenumber": "8", "addr:postcode": "08002", "addr:street": "Passeig de Colom", "amenity": "bar", "name": "Espit Chupitos"}}, {"type": "node", "id": 4653437490, "lat": 41.3754753, "lon": 2.1677448, "tags": {"amenity": "bar", "name": "Los Cachitos", "name:es": "Los Cachitos"}}, {"type": "node", "id": 4657957289, "lat": 41.3751709, "lon": 2.1693835, "tags": {"amenity": "bar", "name": "Espanyol", "name:ca": "Espanyol"}}, {"type": "node", "id": 4659798495, "lat": 41.3765945, "lon": 2.1653366, "tags": {"amenity": "bar", "name": "Sant Pau", "name:ca": "Sant Pau", "wheelchair": "yes"}}, {"type": "node", "id": 4661083190, "lat": 41.375471, "lon": 2.1670448, "tags": {"amenity": "bar", "name": "D\u00edas De Norte", "name:es": "D\u00edas De Norte"}}, {"type": "node", "id": 4703636561, "lat": 41.3818238, "lon": 2.1797544, "tags": {"addr:housenumber": "6", "addr:postcode": "08002", "addr:street": "Baixada de Viladecols", "amenity": "bar", "name": "Carlos and Mathilda"}}, {"type": "node", "id": 4726582797, "lat": 41.3892191, "lon": 2.1783959, "tags": {"amenity": "bar", "name": "Andorra", "name:es": "Andorra"}}, {"type": "node", "id": 4726582799, "lat": 41.3872998, "lon": 2.1792771, "tags": {"amenity": "bar", "name": "Bodega Jan\u00e9", "name:es": "Bodega Jan\u00e9"}}, {"type": "node", "id": 4726583197, "lat": 41.3895056, "lon": 2.1779383, "tags": {"amenity": "bar", "name": "Obrador", "name:ca": "Obrador"}}, {"type": "node", "id": 4726583198, "lat": 41.3879295, "lon": 2.1794342, "tags": {"amenity": "bar"}}, {"type": "node", "id": 4729342999, "lat": 41.3743998, "lon": 2.1677116, "tags": {"air_conditioning": "yes", "amenity": "bar", "name": "Porto Col\u00f3n"}}, {"type": "node", "id": 4729343192, "lat": 41.3752214, "lon": 2.1663889, "tags": {"addr:postcode": "08001", "amenity": "bar", "name": "Paddock", "name:en": "Paddock", "opening_hours": "Tu-Sa 18:30-23:00; Su 12:00-23:00"}}, {"type": "node", "id": 4729343193, "lat": 41.3746194, "lon": 2.1669636, "tags": {"amenity": "bar", "indoor_seating": "yes", "name": "Cervecer\u00eda Frankfurt El Molino", "outdoor_seating": "yes"}}, {"type": "node", "id": 4729348090, "lat": 41.3751877, "lon": 2.165879, "tags": {"amenity": "bar", "name": "Patchwork Concept Bar"}}, {"type": "node", "id": 4730749622, "lat": 41.3793301, "lon": 2.1787723, "tags": {"addr:housenumber": "29", "addr:street": "Carrer dels C\u00f2dols", "amenity": "bar", "email": "polaroidbar@gmail.com", "name": "Polaroid bar", "phone": "+34 931866669"}}, {"type": "node", "id": 4745636221, "lat": 41.3886394, "lon": 2.1739797, "tags": {"amenity": "bar", "cuisine": "burger;sandwich;breakfast;tapas;coffee_shop", "name": "Bar tim\u00f3n", "name:es": "Bar tim\u00f3n"}}, {"type": "node", "id": 4755496722, "lat": 41.3845759, "lon": 2.1695206, "tags": {"amenity": "bar", "name": "Drapaire", "name:es": "Drapaire"}}, {"type": "node", "id": 4787898099, "lat": 41.3812476, "lon": 2.1668432, "tags": {"addr:city": "Barcelona", "addr:housenumber": "1", "addr:postcode": "08001", "addr:street": "Pla\u00e7a Emili Vendrell", "amenity": "bar", "name": "Two Schmuks", "name:en": "Two Schmucks"}}, {"type": "node", "id": 4851287027, "lat": 41.3871699, "lon": 2.1760883, "tags": {"amenity": "bar", "name": "Bar L'antic Teatre", "name:ca": "Bar L'antic Teatre"}}, {"type": "node", "id": 4859450236, "lat": 41.3757705, "lon": 2.1885017, "tags": {"addr:city": "Barcelona", "addr:housenumber": "4", "addr:postcode": "08039", "addr:street": "Carrer de l'Escar", "amenity": "bar", "name": "Bar Colombo", "osm_type": "node", "ref:ES:catastro": "2112406DF3821C"}}, {"type": "node", "id": 5028957224, "lat": 41.3872515, "lon": 2.1676245, "tags": {"addr:city": "Barcelona", "addr:housenumber": "35", "addr:postcode": "08007", "addr:street": "Ronda de la Universitat", "amenity": "bar", "contact:phone": "+34 911 67 52 25", "name": "IT - Italian Trattoria Barcelona", "name:es": "Milano", "smoking": "no", "website": "https://www.privateaser.es/local/52720-it-italian-trattoria-barcelona"}}, {"type": "node", "id": 5062286421, "lat": 41.3821981, "lon": 2.1758384, "tags": {"addr:housenumber": "11", "addr:postcode": "08002", "addr:street": "Carrer del Call", "amenity": "bar", "name": "Rey del Mojito"}}, {"type": "node", "id": 5082607261, "lat": 41.3872947, "lon": 2.1804299, "tags": {"addr:housenumber": "43", "addr:street": "Carrer dels Carders", "amenity": "bar", "cuisine": "italian", "description": "Cocktails und kleine Happen zu essen, Craft Beer Auswahl", "name": "Ina", "opening_hours": "Mo, We-Fr 09:30-16:00, 19:00-01:30; Sa 09:30-01:30; Su 09:30-23:00", "phone": "+34663476017"}}, {"type": "node", "id": 5085619781, "lat": 41.381186, "lon": 2.1742004, "tags": {"amenity": "bar"}}, {"type": "node", "id": 5108433921, "lat": 41.378394, "lon": 2.165371, "tags": {"addr:housenumber": "32", "addr:street": "Carrer de la Cera", "amenity": "bar", "name:en": "Pesca Salada"}}, {"type": "node", "id": 5108595622, "lat": 41.3792438, "lon": 2.165785, "tags": {"addr:housenumber": "2", "addr:street": "Carrer d'En Botella", "amenity": "bar", "name:en": "Chulapio"}}, {"type": "node", "id": 5155671352, "lat": 41.3846098, "lon": 2.1772919, "tags": {"addr:housenumber": "8", "addr:postcode": "08002", "addr:street": "Carrer de la Tapineria", "amenity": "bar", "check_date": "2024-07-20", "name": "Spritz", "wheelchair": "limited"}}, {"type": "node", "id": 5156647127, "lat": 41.3847262, "lon": 2.1789496, "tags": {"addr:street": "Carrer de la B\u00f2ria", "amenity": "bar", "name": "Boria", "name:ca": "Boria", "wheelchair": "no"}}, {"type": "node", "id": 5156690623, "lat": 41.3849827, "lon": 2.1791939, "tags": {"addr:street": "Pla\u00e7a de la Llana", "amenity": "bar", "name": "Tower bar", "name:ca": "Tower bar", "wheelchair": "limited"}}, {"type": "node", "id": 5163798722, "lat": 41.3814266, "lon": 2.182686, "tags": {"addr:housenumber": "4", "addr:street": "Passeig d'Isabel II", "amenity": "bar", "name:en": "The Mint", "phone": "+34651144365"}}, {"type": "node", "id": 5167181223, "lat": 41.3825733, "lon": 2.165664, "tags": {"addr:housenumber": "39", "addr:postcode": "08001", "addr:street": "Carrer de Ferlandina", "amenity": "bar", "name": "Bodega Berlanga", "name:ca": "Bodega Berlanga", "opening_hours": "Mo-Sa 18:00-02:30"}}, {"type": "node", "id": 5168232325, "lat": 41.3832429, "lon": 2.1775174, "tags": {"addr:housenumber": "16", "addr:postcode": "08002", "addr:street": "Carrer de la Llibreteria", "amenity": "bar", "check_date": "2023-04-28", "name": "Mes\u00f3n del Caf\u00e9"}}, {"type": "node", "id": 5168232523, "lat": 41.3834934, "lon": 2.1776063, "tags": {"addr:housenumber": "23", "addr:postcode": "08002", "addr:street": "Carrer de la Llibreteria", "amenity": "bar", "name": "Bar Brusi"}}, {"type": "node", "id": 5197616824, "lat": 41.3779157, "lon": 2.1777037, "tags": {"amenity": "bar", "name": "nn"}}, {"type": "node", "id": 5208710142, "lat": 41.3828913, "lon": 2.175531, "tags": {"addr:housenumber": "14", "addr:postcode": "08002", "addr:street": "Carrer de Sant Dom\u00e8nec del Call", "amenity": "bar", "name": "La Alcoba Azul"}}, {"type": "node", "id": 5210881000, "lat": 41.3810509, "lon": 2.1805139, "tags": {"addr:city": "Barcelona", "addr:housenumber": "46", "addr:postcode": "08002", "addr:street": "Carrer Ample", "alt_name": "The Bollocks", "amenity": "bar", "description": "Rock, Coctails, Pinballs i Burgers", "email": "bollocksbcn@gmail.com", "happy_hours": "Mo-Su 19:00-22:00", "name": "Bollocks", "opening_hours": "Mo-Th,Su 19:00-02:30; Fr-Sa 19:00-03:00", "phone": "+34 663710095", "website": "https://www.bollocksbar.com/"}}, {"type": "node", "id": 5210881001, "lat": 41.3777211, "lon": 2.1727671, "tags": {"amenity": "bar", "name": "Bar Tino"}}, {"type": "node", "id": 5210881002, "lat": 41.3746019, "lon": 2.1698284, "tags": {"addr:housenumber": "109", "addr:postcode": "08004", "addr:street": "Carrer Nou de la Rambla", "amenity": "bar", "name": "Frankfurt Jazz Band", "opening_hours": "Mo-Fr 18:00-02:30, Fr,Sa 18:00-03:30, Su 18:00-02:30", "phone": "+34 934414002"}}, {"type": "node", "id": 5235655122, "lat": 41.3816361, "lon": 2.1828064, "tags": {"amenity": "bar", "name": "Bodega Vidrios y cristales", "name:ca": "Bodega Vidrios y cristales", "wheelchair": "yes"}}, {"type": "node", "id": 5241133621, "lat": 41.3802566, "lon": 2.1725439, "tags": {"amenity": "bar", "name": "Bodega Montse", "name:ca": "Bodega Montse"}}, {"type": "node", "id": 5271977223, "lat": 41.3797222, "lon": 2.1752424, "tags": {"addr:housenumber": "17", "addr:postcode": "08002", "addr:street": "Pla\u00e7a Reial", "amenity": "bar", "check_date": "2024-07-20", "fixme": "quitar el duplicado m\u00e1s antiguo y fusionar", "harassment_prevention": "No Callem", "name": "Jamboree Jazz & Dance Club", "name:ca": "Jamboree Jazz & Dance Club", "name:en": "Jamboree Jazz & Dance Club", "name:es": "Jamboree Jazz & Dance Club", "phone": "+34 933041210", "sexual_antiharassment_policy": "yes", "sexual_antiharassment_policy:name": "NoCallem", "website": "https://jamboreejazz.com"}}, {"type": "node", "id": 5272756221, "lat": 41.3755883, "lon": 2.1703543, "tags": {"amenity": "bar", "name": "Macera Taller Bar"}}, {"type": "node", "id": 5274307823, "lat": 41.3811106, "lon": 2.1674275, "tags": {"amenity": "bar", "name": "33/45"}}, {"type": "node", "id": 5312370356, "lat": 41.3855106, "lon": 2.1751561, "tags": {"amenity": "bar", "name": "Cala del Vermut"}}, {"type": "node", "id": 5312370811, "lat": 41.3859393, "lon": 2.1747648, "tags": {"amenity": "bar", "name": "Bodega del Vermut"}}, {"type": "node", "id": 5353633553, "lat": 41.3836737, "lon": 2.1837007, "tags": {"addr:housenumber": "4", "addr:postcode": "08003", "addr:street": "Carrer de Rere Palau", "amenity": "bar", "name": "Paradiso", "opening_hours": "Mo-Su 17:00-02:30"}}, {"type": "node", "id": 5380437122, "lat": 41.3841796, "lon": 2.1806721, "tags": {"addr:city": "Barcelona", "addr:housenumber": "5", "addr:postcode": "08003", "addr:street": "Carrer dels Mirallers", "amenity": "bar", "cocktails": "yes", "email": "info@drstravinsky.cat", "name": "Dr Stravinsky", "website": "https://drstravinsky.cat"}}, {"type": "node", "id": 5468395621, "lat": 41.384384, "lon": 2.1800592, "tags": {"addr:housenumber": "13", "addr:postcode": "08003", "addr:street": "Carrer dels Vigatans", "amenity": "bar", "internet_access": "wlan", "name": "Dux Gin & Cocktail Bar Barcelona", "opening_hours": "Su-Th 18:30-02:00; Fr-Sa 18:30-02:30", "website": "https://duxborne.com"}}, {"type": "node", "id": 5518705738, "lat": 41.3836545, "lon": 2.1686531, "tags": {"amenity": "bar", "indoor_seating": "yes", "name": "La central", "outdoor_seating": "yes"}}, {"type": "node", "id": 5522181089, "lat": 41.3858755, "lon": 2.1850392, "tags": {"amenity": "bar", "name": "Magic", "name:hu": "M\u00e1gick"}}, {"type": "node", "id": 5525927436, "lat": 41.3880755, "lon": 2.1763052, "tags": {"addr:city": "Barcelona", "addr:housenumber": "28", "addr:postcode": "08003", "addr:street": "Carrer de Sant Pere M\u00e9s Alt", "amenity": "bar", "name": "B\u00e4r Sant Pere", "toilets:wheelchair": "yes", "wheelchair": "yes"}}, {"type": "node", "id": 5606506169, "lat": 41.3803881, "lon": 2.1789886, "tags": {"addr:city": "Barcelona", "addr:housenumber": "35", "addr:postcode": "08002", "addr:street": "Carrer d'Aviny\u00f3", "amenity": "bar", "indoor_seating": "yes", "name": "Sincopa", "outdoor_seating": "no", "phone": "+34 932 68 75 60"}}, {"type": "node", "id": 5718757792, "lat": 41.3790957, "lon": 2.1696433, "tags": {"addr:city": "Barcelona", "addr:housenumber": "17-21", "addr:postcode": "08001", "addr:street": "Rambla del Raval", "amenity": "bar", "check_date": "2025-05-14", "level": "11", "location": "rooftop", "name": "360\u00b0", "opening_hours": "11:00-01:00", "outdoor_seating": "yes", "phone": "+34933201490", "smoking": "yes", "website": "https://www.terrazeo.com/terraza/terraza-del-hotel-barcelo-raval/"}}, {"type": "node", "id": 5785061644, "lat": 41.3834738, "lon": 2.1664261, "tags": {"amenity": "bar", "name": "cafeteria Octubre"}}, {"type": "node", "id": 5902468191, "lat": 41.3831249, "lon": 2.1652703, "tags": {"addr:street": "Carrer de Joaqu\u00edn Costa", "amenity": "bar", "name": "Two Schmucks"}}, {"type": "node", "id": 5916216006, "lat": 41.3843987, "lon": 2.1696272, "tags": {"addr:street": "Carrer de les Sitges", "amenity": "bar", "name": "Caribbean Club Cocktail Bar"}}, {"type": "node", "id": 5923825649, "lat": 41.3849901, "lon": 2.1833885, "tags": {"addr:city": "Barcelona", "addr:housenumber": "3", "addr:postcode": "08003", "addr:street": "Carrer Antic de Sant Joan", "amenity": "bar", "email": "info@eldiset.com", "name": "Eldiset", "phone": "+34 932681987", "website": "https://eldiset.com/"}}, {"type": "node", "id": 5923825650, "lat": 41.386519, "lon": 2.1832457, "tags": {"addr:city": "Barcelona", "addr:housenumber": "7", "addr:postcode": "08003", "addr:street": "Carrer de la Fusina", "amenity": "bar", "email": "INFO@CAFEKAFKA.ES", "name": "Cafe Kafka", "phone": "+34933151776", "website": "https://www.cafekafka.es/"}}, {"type": "node", "id": 5923835987, "lat": 41.3898967, "lon": 2.1789978, "tags": {"amenity": "bar", "name": "en apart\u00e9"}}, {"type": "node", "id": 5927815186, "lat": 41.3796837, "lon": 2.1780016, "tags": {"addr:housenumber": "14", "addr:postcode": "08002", "addr:street": "Carrer dels C\u00f2dols", "amenity": "bar", "name": "Mariatchi"}}, {"type": "node", "id": 6001163586, "lat": 41.3775132, "lon": 2.1755775, "tags": {"addr:housenumber": "2", "addr:street": "Carrer de Santa M\u00f2nica", "amenity": "bar", "name:en": "The Wild Rover Irish Pub"}}, {"type": "node", "id": 6020170185, "lat": 41.3828611, "lon": 2.1740498, "tags": {"amenity": "bar", "name:ru": "ENRIQUE TOMAS. Pernileria-Jamineria"}}, {"type": "node", "id": 6033605286, "lat": 41.3744951, "lon": 2.1667538, "tags": {"addr:housenumber": "3", "addr:street": "Carrer de Salv\u00e0", "amenity": "bar", "lgbtq": "primary", "name": "La Federica", "name:es": "La Federica", "opening_hours": "We-Th 19:00-02:00; Fr-Sa 19:00-03:00; Su 19:00-01:00", "wheelchair": "limited"}}, {"type": "node", "id": 6051590892, "lat": 41.3829022, "lon": 2.1654809, "tags": {"amenity": "bar", "name": "Negroni", "name:es": "Negroni Cocktail Bar"}}, {"type": "node", "id": 6052329485, "lat": 41.3832428, "lon": 2.1781566, "tags": {"addr:housenumber": "7", "addr:postcode": "08002", "addr:street": "Carrer de la Dagueria", "amenity": "bar", "name": "Bar O'Ceo"}}, {"type": "node", "id": 6064402762, "lat": 41.3814694, "lon": 2.1767447, "tags": {"addr:housenumber": "6", "addr:postcode": "08002", "addr:street": "Baixada de Sant Miquel", "amenity": "bar", "entrance": "yes", "name": "Enkel"}}, {"type": "node", "id": 6119950185, "lat": 41.3828393, "lon": 2.1845117, "tags": {"amenity": "bar", "check_date": "2023-11-17", "name": "Mr Robinson", "name:en": "Mr. Robinson"}}, {"type": "node", "id": 6268440489, "lat": 41.3806296, "lon": 2.1888299, "tags": {"amenity": "bar", "name": "El Paco", "name:es": "El Bar del Paco"}}, {"type": "node", "id": 6268475414, "lat": 41.3743554, "lon": 2.1673863, "tags": {"addr:housenumber": "3", "addr:street": "Carrer del Roser", "amenity": "bar", "name": "La Pi\u00f1a Bar"}}, {"type": "node", "id": 6281806886, "lat": 41.3818444, "lon": 2.170849, "tags": {"amenity": "bar", "check_date": "2025-05-14", "name": "L\u2018OW Boqueria"}}, {"type": "node", "id": 6281807588, "lat": 41.3829971, "lon": 2.170653, "tags": {"addr:housenumber": "7", "addr:postcode": "08001", "addr:street": "Carrer d'en Xucl\u00e0", "amenity": "bar", "name": "Gats", "phone": "+34931440044"}}, {"type": "node", "id": 6281807591, "lat": 41.3805982, "lon": 2.1665211, "tags": {"amenity": "bar", "name": "La Ravala", "name:es": "La Ravela"}}, {"type": "node", "id": 6281810285, "lat": 41.3781255, "lon": 2.1652096, "tags": {"amenity": "bar", "name": "Cuatro viento"}}, {"type": "node", "id": 6284037385, "lat": 41.3798131, "lon": 2.1685175, "tags": {"addr:housenumber": "1", "addr:street": "Rambla del Raval", "amenity": "bar", "name": "Bar 1800", "phone": "+34 934424435"}}, {"type": "node", "id": 6286303537, "lat": 41.3913483, "lon": 2.1665706}, {"type": "node", "id": 6286303568, "lat": 41.3913652, "lon": 2.1665924}, {"type": "node", "id": 6486643797, "lat": 41.385028, "lon": 2.1663563, "tags": {"amenity": "bar", "name": "BURGERBAR", "name:en": "Nevermind Bar"}}, {"type": "node", "id": 6516250453, "lat": 41.3838121, "lon": 2.1673102, "tags": {"amenity": "bar"}}, {"type": "node", "id": 6574143485, "lat": 41.3837757, "lon": 2.1816336, "tags": {"amenity": "bar", "name": "el chigre 1769"}}, {"type": "node", "id": 6651539988, "lat": 41.3806023, "lon": 2.1760057, "tags": {"amenity": "bar", "internet_access": "wlan", "name": "nevermind", "opening_hours": "Su-Th 19:00-02:30, Fr,Sa,PH 19:00-03:00"}}, {"type": "node", "id": 6728731685, "lat": 41.3898929, "lon": 2.1706612, "tags": {"amenity": "bar", "name": "Bobby's Free"}}, {"type": "node", "id": 6743181085, "lat": 41.3866999, "lon": 2.1838431, "tags": {"amenity": "bar", "cuisine": "mexican", "name": "San Pedrito"}}, {"type": "node", "id": 6913157187, "lat": 41.3827431, "lon": 2.1759968, "tags": {"addr:housenumber": "3", "addr:street": "Carrer de la Fruita", "amenity": "bar", "name": "Anduri\u00f1a"}}, {"type": "node", "id": 7003296919, "lat": 41.3756878, "lon": 2.1708412, "tags": {"amenity": "bar", "name": "Bosforo"}}, {"type": "node", "id": 7006835685, "lat": 41.3805215, "lon": 2.1781997, "tags": {"amenity": "bar", "name": "la burnessa"}}, {"type": "node", "id": 7040898590, "lat": 41.3799725, "lon": 2.1801437, "tags": {"amenity": "bar", "name": "bar Celia pulperia"}}, {"type": "node", "id": 7040898592, "lat": 41.3813764, "lon": 2.1796144, "tags": {"amenity": "bar", "name": "la maison"}}, {"type": "node", "id": 7999446187, "lat": 41.3824905, "lon": 2.1657495, "tags": {"addr:housenumber": "37", "addr:postcode": "08001", "addr:street": "Carrer de Joaqu\u00edn Costa", "amenity": "bar", "name": "Santa Maria", "opening_hours": "Mo-Su 18:00-02:00"}}, {"type": "node", "id": 8257528854, "lat": 41.3837436, "lon": 2.1826835, "tags": {"addr:city": "Barcelona", "addr:housenumber": "7", "addr:place": "Pla\u00e7a del Fossar de les Moreres", "addr:postcode": "08003", "amenity": "bar", "check_date": "2023-10-29", "contact:phone": "+34 627 18 94 78", "description": "Milano Cocktail", "name": "Etniko Cocktail Bar", "opening_hours": "Fr,Sa 18:00-03:00; Su-Th 18:00-02:30", "website": "https://www.privateaser.es/local/5827-Etniko-Cocktail-Bar"}}, {"type": "node", "id": 8433021718, "lat": 41.380344, "lon": 2.1794211, "tags": {"amenity": "bar", "name": "Las Cuevas de Los Rajahs", "opening_hours": "19:00-03:00"}}, {"type": "node", "id": 8765272511, "lat": 41.3832372, "lon": 2.1683172, "tags": {"addr:city": "Barcelona", "addr:housenumber": "16", "addr:postcode": "08001", "addr:street": "Carrer d'Elisabets", "amenity": "bar", "cuisine": "tapas", "indoor_seating": "yes", "name": "Bar La Masia", "opening_hours": "Mo-Sa 11:00-23:00", "outdoor_seating": "no", "phone": "+34931279618", "wheelchair": "no"}}, {"type": "node", "id": 8820822619, "lat": 41.383759, "lon": 2.1831303, "tags": {"addr:housenumber": "4", "addr:street": "Pla\u00e7a de les Olles", "amenity": "bar", "name": "Mariposa Negra Bar"}}, {"type": "node", "id": 8969115338, "lat": 41.3815531, "lon": 2.1669188, "tags": {"addr:housenumber": "12", "addr:street": "Carrer de Joaqu\u00edn Costa", "amenity": "bar", "name": "Carnal"}}, {"type": "node", "id": 8999571617, "lat": 41.3852677, "lon": 2.1805362, "tags": {"addr:housenumber": "14", "addr:postcode": "08003", "addr:street": "Carrer de la Princesa", "amenity": "bar", "name": "Bar Brutal", "opening_hours": "Mo, We-Th 19:00-00:30; Fr-Su 13:00-00:30"}}, {"type": "node", "id": 9064017017, "lat": 41.3909909, "lon": 2.187867, "tags": {"addr:housenumber": "52", "addr:postcode": "08005", "addr:street": "Carrer de Wellington", "amenity": "bar", "check_date": "2024-06-19", "contact:instagram": "bubarbarcelona", "cuisine": "tapas;regional", "name": "Bubar", "outdoor_seating": "yes", "payment:cash": "yes", "payment:credit_cards": "yes", "payment:debit_cards": "yes", "phone": "+34675701049", "smoking": "outside", "toilets": "yes", "wheelchair": "yes"}}, {"type": "node", "id": 9084455138, "lat": 41.3848268, "lon": 2.1826899, "tags": {"amenity": "bar", "cocktails": "yes", "name": "El Copet\u00edn"}}, {"type": "node", "id": 9097644801, "lat": 41.3842445, "lon": 2.1697428, "tags": {"addr:city": "Barcelona", "addr:housenumber": "3", "addr:street": "Carrer de les Sitges", "amenity": "bar", "description": "Whisky & Cocktails in Barcelona Since 1969", "name": "La Whiskeria", "outdoor_seating": "no", "website": "https://lawhiskeria.es/"}}, {"type": "node", "id": 9135044518, "lat": 41.3792566, "lon": 2.169167, "tags": {"amenity": "bar", "name": "Atlanta Club Social"}}, {"type": "node", "id": 9194445315, "lat": 41.38264, "lon": 2.1656158, "tags": {"addr:street": "Carrer de Joaqu\u00edn Costa", "amenity": "bar", "name": "Pantera Mambo"}}, {"type": "node", "id": 9230934874, "lat": 41.3905009, "lon": 2.1801937, "tags": {"amenity": "bar", "check_date": "2023-10-10", "name": "Rec Comtal", "name:ca": "Rec Comtal"}}, {"type": "node", "id": 9230934875, "lat": 41.3897936, "lon": 2.1806881, "tags": {"amenity": "bar", "name": "65 Degrees"}}, {"type": "node", "id": 9233143096, "lat": 41.3760082, "lon": 2.1828893, "tags": {"amenity": "bar", "name": "rebeld"}}, {"type": "node", "id": 9233214239, "lat": 41.3812693, "lon": 2.1825324, "tags": {"amenity": "bar", "check_date": "2023-10-14", "name": "Porch"}}, {"type": "node", "id": 9233337805, "lat": 41.3869718, "lon": 2.1810871, "tags": {"amenity": "bar", "name": "El Gat Rumberu", "website": "https://gatrumberu.cat/"}}, {"type": "node", "id": 9236150781, "lat": 41.3886595, "lon": 2.1806213, "tags": {"amenity": "bar", "check_date": "2024-09-21", "name": "Festin"}}, {"type": "node", "id": 9241570026, "lat": 41.3864298, "lon": 2.1825466, "tags": {"amenity": "bar", "name": "M1"}}, {"type": "node", "id": 9576304317, "lat": 41.3781355, "lon": 2.1755733, "tags": {"addr:housenumber": "19", "addr:street": "La Rambla", "amenity": "bar", "name": "Maison close"}}, {"type": "node", "id": 9588489317, "lat": 41.3778943, "lon": 2.1718041, "tags": {"addr:housenumber": "33", "addr:street": "Carrer del Marqu\u00e8s de Barber\u00e0", "amenity": "bar", "name": "Las Marinas"}}, {"type": "node", "id": 9796948717, "lat": 41.3820819, "lon": 2.1875157, "tags": {"amenity": "bar", "name": "Bit\u00e1cora"}}, {"type": "node", "id": 10008275818, "lat": 41.3808865, "lon": 2.1791969, "tags": {"amenity": "bar", "name:en": "bar 18"}}, {"type": "node", "id": 10169352800, "lat": 41.3891366, "lon": 2.1796504, "tags": {"addr:city": "Barcelona", "addr:housenumber": "2", "addr:postcode": "08003", "addr:street": "Carrer del Rec Comtal", "amenity": "bar", "cuisine": "spanish", "name": "Quillo", "opening_hours": "12:00-01:00", "phone": "+34 931 383 130", "website": "https://quillo-bar.com", "wheelchair": "limited"}}, {"type": "node", "id": 10171074275, "lat": 41.3898237, "lon": 2.1805681, "tags": {"amenity": "bar", "name": "Torres", "name:ca": "Torres"}}, {"type": "node", "id": 10171120677, "lat": 41.3842331, "lon": 2.1840596, "tags": {"amenity": "bar", "name": "Bronzo"}}, {"type": "node", "id": 10174431691, "lat": 41.3870993, "lon": 2.1799242, "tags": {"amenity": "bar", "cuisine": "italian", "name": "Zero Nove Cinque"}}, {"type": "node", "id": 10176586129, "lat": 41.3824601, "lon": 2.1743591, "tags": {"amenity": "bar", "name": "Bar Mono"}}, {"type": "node", "id": 10177244834, "lat": 41.3861463, "lon": 2.1799556, "tags": {"amenity": "bar", "name": "Piel de Gallina"}}, {"type": "node", "id": 10178145293, "lat": 41.3828093, "lon": 2.1664756, "tags": {"amenity": "bar", "indoor_seating": "yes", "name": "MACBA", "name:ca": "MACBA", "outdoor_seating": "yes", "wheelchair": "no"}}, {"type": "node", "id": 10181211974, "lat": 41.3908805, "lon": 2.1783965, "tags": {"amenity": "bar", "name": "Mariona"}}, {"type": "node", "id": 10181211975, "lat": 41.3908292, "lon": 2.1782443, "tags": {"amenity": "bar", "name": "Baozi Bar"}}, {"type": "node", "id": 10225441781, "lat": 41.3743758, "lon": 2.1673941, "tags": {"addr:city": "Barcelona", "addr:housenumber": "3", "addr:postcode": "08004", "addr:street": "Carrer del Roser", "amenity": "bar", "check_date:currency:XBT": "2022-11-29", "currency:XBT": "yes", "email": "Radionossafam@gmail.com", "name": "Radio Nossa", "payment:lightning": "yes", "payment:lightning_contactless": "no", "payment:onchain": "no", "phone": "+34 675 103 073", "website": "https://radionossa.com"}}, {"type": "node", "id": 10243372710, "lat": 41.379207, "lon": 2.1729736, "tags": {"amenity": "bar", "name": "Bodega Valls"}}, {"type": "node", "id": 10287678246, "lat": 41.3831319, "lon": 2.1808369, "tags": {"amenity": "bar", "name": "Teranga"}}, {"type": "node", "id": 10557306810, "lat": 41.3824953, "lon": 2.1659078, "tags": {"addr:housenumber": "36", "addr:street": "Carrer de Joaqu\u00edn Costa", "amenity": "bar", "name": "Lucky Schmuck"}}, {"type": "node", "id": 10721064807, "lat": 41.3893117, "lon": 2.1708667, "tags": {"addr:housenumber": "22", "addr:street": "Carrer de Casp", "amenity": "bar", "check_date": "2026-05-23", "contact:facebook": "bonavidabar", "cuisine": "coffee_shop;tapas", "email": "info@bonavidabcn.com", "name": "Bonavida", "outdoor_seating": "yes", "phone": "+34 605 55 73 23", "toilets": "yes", "website": "https://www.bonavidabcn.com/"}}, {"type": "node", "id": 10780356542, "lat": 41.3736734, "lon": 2.1685129, "tags": {"amenity": "bar", "name": "Mala Hierba Coctel Bar"}}, {"type": "node", "id": 10805454505, "lat": 41.3781187, "lon": 2.1731479, "tags": {"addr:housenumber": "34", "addr:postcode": "08001", "addr:street": "Carrer Nou de la Rambla", "amenity": "bar", "contact:instagram": "londonbarbcn", "name:en": "London Bar", "opening_hours": "Su-Th 19:00-02:30; Fr-Sa 19:00-03:00", "phone": "+34938082187", "website": "https://londonbar-bar.negocio.site/", "wikidata": "Q24341148", "wikimedia_commons": "Category:London Bar", "wikipedia": "ca:London Bar"}}, {"type": "node", "id": 10834224105, "lat": 41.388072, "lon": 2.1672595, "tags": {"addr:housenumber": "15", "addr:street": "Rambla de Catalunya", "amenity": "bar", "name": "Belbo dos besos", "opening_hours": "Mo-Su 13:00-23:00"}}, {"type": "node", "id": 11052567962, "lat": 41.378057, "lon": 2.1789373, "tags": {"amenity": "bar", "name": "Gran Torino", "opening_hours": "Mo, Tu 09:00-17:00; We 09:00-00:00; Th 09:00-01:00; Fr, Sa 09:00-02:00"}}, {"type": "node", "id": 11089452500, "lat": 41.3836071, "lon": 2.1690886, "tags": {"amenity": "bar", "name": "Manoda"}}, {"type": "node", "id": 11262978005, "lat": 41.38129, "lon": 2.1831964, "tags": {"amenity": "bar", "check_date": "2023-10-14", "name": "La Cala"}}, {"type": "node", "id": 11301059521, "lat": 41.3797952, "lon": 2.1669738, "tags": {"amenity": "bar", "name": "Big Bang Bar"}}, {"type": "node", "id": 11352239769, "lat": 41.3800163, "lon": 2.180179, "tags": {"addr:housenumber": "13", "addr:street": "Carrer de la Merc\u00e8", "amenity": "bar", "name": "Casa del Molinero"}}, {"type": "node", "id": 11359049486, "lat": 41.3844527, "lon": 2.1833081, "tags": {"amenity": "bar", "name": "Lying"}}, {"type": "node", "id": 11359142730, "lat": 41.3796065, "lon": 2.1878027, "tags": {"amenity": "bar", "name": "The Fastnet"}}, {"type": "node", "id": 11425756169, "lat": 41.3858798, "lon": 2.1792822, "tags": {"amenity": "bar"}}, {"type": "node", "id": 11525759569, "lat": 41.383295, "lon": 2.1813087, "tags": {"amenity": "bar", "name": "Flip\u00e1 Gin", "name:es": "Flip\u00e1 Gin"}}, {"type": "node", "id": 11555082324, "lat": 41.3789569, "lon": 2.1750386, "tags": {"amenity": "bar", "name": "The Old Irish Pub"}}, {"type": "node", "id": 11617295979, "lat": 41.3738796, "lon": 2.1690488, "tags": {"addr:city": "Barcelona", "addr:housenumber": "119", "addr:postcode": "08004", "addr:street": "Carrer Nou de la Rambla", "amenity": "bar", "contact:instagram": "https://www.instagram.com/stereobarcelona/", "name": "Stereo Bar", "opening_hours": "We-Sa 19:00-03:00", "outdoor_seating": "yes", "payment:cash": "yes", "payment:contactless": "yes", "payment:credit_cards": "yes"}}, {"type": "node", "id": 11940248363, "lat": 41.385687, "lon": 2.1816538, "tags": {"amenity": "bar", "name": "Bubita Sangria Bar", "opening_hours": "Su-Th 10:00-23:00, Fr,Sa 10:00-24:00"}}, {"type": "node", "id": 11964992970, "lat": 41.3842823, "lon": 2.1800016, "tags": {"addr:housenumber": "8", "addr:postcode": "08003", "addr:street": "Carrer dels Vigatans", "amenity": "bar", "name": "Animal del Vi"}}, {"type": "node", "id": 12031405360, "lat": 41.3858082, "lon": 2.1815212, "tags": {"amenity": "bar", "name": "Bar Bodega Flassaders"}}, {"type": "node", "id": 12064891611, "lat": 41.3845406, "lon": 2.1824839, "tags": {"addr:housenumber": "13", "addr:street": "Passeig del Born", "alt_name": "Club Sauvage", "amenity": "bar", "capacity": "75", "check_date": "2024-07-20", "email": "bs@barsauvage.com", "name": "Bar Sauvage", "opening_hours": "Mo-Th,Su 20:00-03:00; Fr-Sa 19:00-03:30", "phone": "+34 938 32 51 84", "website": "https://www.barsauvage.com"}}, {"type": "node", "id": 12069703462, "lat": 41.3854345, "lon": 2.1786214, "tags": {"addr:city": "Barcelona", "addr:housenumber": "2", "addr:postcode": "08003", "addr:street": "Pla\u00e7a de Santa Caterina", "amenity": "bar", "cuisine": "mediterranean;local", "name": "Lupara", "opening_hours": "Tu-Sa 10:00-01:00, Sun 12:00-18:00"}}, {"type": "node", "id": 12069715583, "lat": 41.3854153, "lon": 2.1787973, "tags": {"addr:city": "Barcelona", "addr:housenumber": "1", "addr:postcode": "08003", "addr:street": "Pla\u00e7a de Santa Caterina", "air_conditioning": "yes", "amenity": "bar", "cuisine": "mediterranean;local", "description": "Cocktail bar with authentic food in the heart of Barcelona. We blend the art of mixology with the warmth of friendly, but top-tier service, ensuring every visit is memorable. Our menu is not your usual tapas - more elaborate and with our twist.", "email": "mail@magma.barcelona", "internet_access": "wlan", "name": "Magma Bar", "opening_hours": "Tu-Sa 18:00-02:30", "phone": "+34645960430", "website": "https://magma.barcelona/"}}, {"type": "node", "id": 12118391602, "lat": 41.3825553, "lon": 2.1815383, "tags": {"addr:housenumber": "4", "addr:street": "Carrer dels Consellers", "amenity": "bar", "name": "Collage Cocktail Bar"}}, {"type": "node", "id": 12200399501, "lat": 41.3749476, "lon": 2.1819379, "tags": {"amenity": "bar", "name": "Paradiso - Time Out Market"}}, {"type": "node", "id": 12373442124, "lat": 41.3774478, "lon": 2.1753125, "tags": {"amenity": "bar", "contact:city": "Barcelona", "contact:housenumber": "2", "contact:phone": "+34 910 78 06 65", "contact:postcode": "8001", "contact:street": "Calle de Santa M\u00f3nica", "name": "Wild Rover", "website": "https://www.privateaser.es/local/50062-wild-rover-bar"}}, {"type": "node", "id": 12884205912, "lat": 41.3911815, "lon": 2.1729313, "tags": {"amenity": "bar", "check_date": "2025-06", "name": "303 Audiophile Bar"}}, {"type": "node", "id": 13163339050, "lat": 41.3821941, "lon": 2.1784341, "tags": {"addr:street": "Bellafil 3", "amenity": "bar", "name": "Ascensor Bar"}}, {"type": "node", "id": 13237550002, "lat": 41.3829313, "lon": 2.1652706, "tags": {"addr:housenumber": "47", "addr:postcode": "08001", "addr:street": "Carrer de Joaqu\u00edn Costa", "amenity": "bar", "name": "La Cobra", "website": "https://lacobrabar.tumblr.com/"}}, {"type": "node", "id": 13278734450, "lat": 41.3738757, "lon": 2.1687576, "tags": {"amenity": "bar", "name": "Bar Andres El Rey del Bocadillo"}}, {"type": "node", "id": 13283296127, "lat": 41.3742618, "lon": 2.1691498, "tags": {"amenity": "bar", "name": "Snack Bar Leon\u00e9s 2"}}, {"type": "node", "id": 13306068503, "lat": 41.3807786, "lon": 2.1809579, "tags": {"amenity": "bar", "name": "El Sarau"}}, {"type": "node", "id": 13310620301, "lat": 41.3805508, "lon": 2.1751888, "tags": {"addr:city": "Barcelona", "addr:postcode": "08002", "addr:street": "7 Pla\u00e7a Reial", "amenity": "bar", "contact:phone": "+34 919 17 54 61", "name": "Club Sauvage - Live Music & Club Sessions", "website": "https://www.privateaser.es/local/53215-club-sauvage-live-music-club-sessions"}}, {"type": "node", "id": 13503592301, "lat": 41.3791887, "lon": 2.1879918, "tags": {"addr:city": "Barcelona", "addr:postcode": "08003", "addr:street": "28 Passeig de Joan de Borb\u00f3", "amenity": "bar", "contact:phone": "+34 632 12 69 49", "name": "MONARQ Tapas & Grill Barceloneta"}}, {"type": "node", "id": 13516609401, "lat": 41.3840735, "lon": 2.1828608, "tags": {"amenity": "bar", "name": "Savannah"}}, {"type": "node", "id": 13519180301, "lat": 41.3831563, "lon": 2.1812532, "tags": {"amenity": "bar", "name": "ALIMENTACI\u00d3 MONK"}}, {"type": "node", "id": 13615862901, "lat": 41.3823165, "lon": 2.1811235, "tags": {"addr:housenumber": "6", "addr:street": "Via Laietana", "amenity": "bar", "name": "The Comedy Clubhouse"}}, {"type": "node", "id": 13627172001, "lat": 41.3790178, "lon": 2.1663877, "tags": {"addr:housenumber": "17", "addr:street": "Carrer de la Cera", "amenity": "bar", "name": "Never Cocktail Bar"}}, {"type": "node", "id": 13667481779, "lat": 41.3855218, "lon": 2.1854665, "tags": {"addr:housenumber": "27", "addr:street": "Avinguda del Marqu\u00e8s de l'Argentera", "amenity": "bar", "contact:instagram": "diobar_mons_de_musica", "name": "Diobar"}}, {"type": "node", "id": 13673095269, "lat": 41.3843301, "lon": 2.1800668, "tags": {"addr:city": "Barcelona", "addr:country": "ES", "addr:housenumber": "8", "addr:postcode": "08003", "addr:street": "Carrer dels Vigatans", "amenity": "bar", "contact:instagram": "drflowbarcelona", "name": "Dr Flow"}}, {"type": "node", "id": 13689565901, "lat": 41.3846023, "lon": 2.1825271, "tags": {"amenity": "bar", "name": "Miramelindo"}}, {"type": "node", "id": 13716054791, "lat": 41.3838867, "lon": 2.1813699, "tags": {"addr:city": "Barcelona", "addr:housenumber": "14", "addr:postcode": "08003", "addr:street": "Carrer dels Mirallers", "amenity": "bar", "cuisine": "spanish", "name": "Bodega del Born"}}, {"type": "node", "id": 13774136501, "lat": 41.3835134, "lon": 2.1709357, "tags": {"amenity": "bar", "name": "La Isabela"}}, {"type": "node", "id": 13821835901, "lat": 41.3810198, "lon": 2.1804688, "tags": {"amenity": "bar", "name": "Motor Oil Bar"}}, {"type": "way", "id": 306577676, "nodes": [3115377555, 6286303537, 6286303568, 3115377558, 3115377557, 3115377554, 3115377555], "tags": {"amenity": "bar", "name": "Banker's Bar", "operator": "Mandarin Oriental", "source": "Survey of 2014-08-01"}}]}