{"version": 0.6, "generator": "Overpass API 0.7.62.11 87bfad18", "osm3s": {"timestamp_osm_base": "2026-07-02T15:30:35Z", "copyright": "The data included in this document is from www.openstreetmap.org. The data is made available under ODbL."}, "elements": [{"type": "node", "id": 2186724182, "lat": 42.6479561, "lon": 23.3794129, "tags": {"addr:city": "\u0421\u043e\u0444\u0438\u044f", "addr:postcode": "1729", "addr:street": "\u0431\u0443\u043b. \u0410\u043b\u0435\u043a\u0441\u0430\u043d\u0434\u044a\u0440 \u041c\u0430\u043b\u0438\u043d\u043e\u0432", "brand": "Billa", "brand:wikidata": "Q537781", "name": "Billa", "name:bg": "\u0411\u0438\u043b\u043b\u0430", "opening_hours": "Mo-Su 07:30-22:00", "operator": "Billa", "phone": "+359 2 970 4970", "self_checkout": "yes", "shop": "supermarket", "website": "https://www.billa.bg/"}}, {"type": "node", "id": 2186724183, "lat": 42.6459651, "lon": 23.3792558, "tags": {"addr:city": "\u0421\u043e\u0444\u0438\u044f", "addr:housenumber": "3", "addr:postcode": "1712", "addr:street": "\u0424\u0438\u043b\u0438\u043f \u0410\u0432\u0440\u0430\u043c\u043e\u0432", "branch": "\u041c\u043b\u0430\u0434\u043e\u0441\u0442", "brand": "Kaufland", "brand:wikidata": "Q685967", "check_date:opening_hours": "2025-12-18", "contact:phone": "+359 2 401 5400", "name": "Kaufland", "name:bg": "\u041a\u0430\u0443\u0444\u043b\u0430\u043d\u0434", "name:en": "Kaufland", "opening_hours": "Mo-Su 07:00-22:00", "ref": "BG1000", "shop": "supermarket", "website": "https://www.kaufland.bg/moyat-kaufland/uslugi/filiali/sofia-mladost-filip-avramov-1000.html", "wheelchair": "yes"}}, {"type": "node", "id": 2272277204, "lat": 42.6456133, "lon": 23.3767027}, {"type": "node", "id": 2272277207, "lat": 42.6457504, "lon": 23.3758752}, {"type": "node", "id": 2272277208, "lat": 42.6462381, "lon": 23.3761747}, {"type": "node", "id": 2272277209, "lat": 42.6456451, "lon": 23.3761982}, {"type": "node", "id": 2272277211, "lat": 42.6457534, "lon": 23.3762634}, {"type": "node", "id": 2272277212, "lat": 42.6459939, "lon": 23.376924}, {"type": "node", "id": 2324238424, "lat": 42.652104, "lon": 23.3799748}, {"type": "node", "id": 2324238427, "lat": 42.6518002, "lon": 23.3805246}, {"type": "node", "id": 2324238430, "lat": 42.6519893, "lon": 23.3806445}, {"type": "node", "id": 2324238433, "lat": 42.6522855, "lon": 23.3800928}, {"type": "node", "id": 2325209247, "lat": 42.6512193, "lon": 23.3766942}, {"type": "node", "id": 2325209248, "lat": 42.6511989, "lon": 23.377289}, {"type": "node", "id": 2325209249, "lat": 42.6513367, "lon": 23.3770856}, {"type": "node", "id": 2325209250, "lat": 42.6509724, "lon": 23.3770586}, {"type": "node", "id": 2325209251, "lat": 42.6513794, "lon": 23.3768946}, {"type": "node", "id": 2325209252, "lat": 42.6512898, "lon": 23.3770268}, {"type": "node", "id": 4309965768, "lat": 42.6511398, "lon": 23.3772682}, {"type": "node", "id": 4309965769, "lat": 42.6511593, "lon": 23.3772394}, {"type": "node", "id": 4441790991, "lat": 42.6454226, "lon": 23.3763629, "tags": {"cuisine": "banitsa", "name": "\u0411\u0430\u043d\u0438\u0447\u0430\u0440\u043d\u0438\u0446\u0430", "shop": "bakery", "takeaway": "yes"}}, {"type": "node", "id": 10967908372, "lat": 42.6452076, "lon": 23.3851834}, {"type": "node", "id": 10967908373, "lat": 42.6447045, "lon": 23.3856653}, {"type": "node", "id": 10967908374, "lat": 42.644876, "lon": 23.3859962}, {"type": "node", "id": 10967908375, "lat": 42.6453982, "lon": 23.3855512}, {"type": "node", "id": 11850846788, "lat": 42.6467641, "lon": 23.3826882, "tags": {"check_date:opening_hours": "2024-06-14", "indoor_seating": "no", "level": "-1", "name": "\u041f\u0440\u0438 \u0421\u0442\u043e\u0439\u0447\u043e", "opening_hours:signed": "no", "outdoor_seating": "no", "shop": "bakery", "takeaway": "only"}}, {"type": "node", "id": 12023357673, "lat": 42.6517345, "lon": 23.380879, "tags": {"shop": "alcohol"}}, {"type": "node", "id": 12095749877, "lat": 42.652196, "lon": 23.3800346, "tags": {"entrance": "main"}}, {"type": "node", "id": 13040634620, "lat": 42.6452289, "lon": 23.3856581}, {"type": "node", "id": 13040634621, "lat": 42.645248, "lon": 23.3856951}, {"type": "node", "id": 13040634628, "lat": 42.6452206, "lon": 23.3852085}, {"type": "way", "id": 217922374, "nodes": [2272277208, 2272277207, 2272277209, 2272277211, 2272277204, 2272277212, 2272277208], "tags": {"addr:city": "\u0421\u043e\u0444\u0438\u044f", "addr:housenumber": "51", "addr:postcode": "1715", "addr:street": "\u0431\u0443\u043b. \u0410\u043b\u0435\u043a\u0441\u0430\u043d\u0434\u044a\u0440 \u041c\u0430\u043b\u0438\u043d\u043e\u0432", "alt_name": "Metrocity", "building": "retail", "building:levels": "10", "check_date": "2024-08-08", "name": "Metro City", "name:bg": "\u041c\u0435\u0442\u0440\u043e \u0421\u0438\u0442\u0438", "shop": "mall"}}, {"type": "way", "id": 223534654, "nodes": [2324238433, 12095749877, 2324238424, 2324238427, 2324238430, 2324238433], "tags": {"addr:city": "\u0421\u043e\u0444\u0438\u044f", "addr:housenumber": "23", "addr:postcode": "1729", "addr:street": "\u0431\u0443\u043b. \u0410\u043b\u0435\u043a\u0441\u0430\u043d\u0434\u044a\u0440 \u041c\u0430\u043b\u0438\u043d\u043e\u0432", "building": "retail", "name": "City Point", "name:bg": "\u0421\u0438\u0442\u0438 \u041f\u043e\u0439\u043d\u0442", "opening_hours": "Mo-Su 10:00-20:00", "phone": "+359876618067", "shop": "mall", "toilets": "no"}}, {"type": "way", "id": 223645544, "nodes": [2325209248, 2325209249, 2325209252, 2325209251, 2325209247, 2325209250, 4309965768, 4309965769, 2325209248], "tags": {"building": "yes", "name": "\u0427\u0430\u0439\u043d\u0430 \u0441\u0438\u0442\u0438", "opening_hours": "Mo-Su,PH 09:30-18:00+", "shop": "supermarket"}}, {"type": "way", "id": 1180986086, "nodes": [10967908372, 10967908373, 10967908374, 13040634620, 13040634621, 10967908375, 13040634628, 10967908372], "tags": {"brand": "Lidl", "brand:wikidata": "Q108169047", "building": "retail", "name": "Lidl", "name:bg": "\u041b\u0438\u0434\u043b", "name:en": "Lidl", "opening_hours": "Mo-Sa 07:30-21:30; Su 08:00-21:00", "ref": "234", "shop": "supermarket", "website": "https://www.lidl.bg/s/bg-BG/magazini/sofiya/ul-zhecho-gyumyushev-5/"}}]}