{"version": 0.6, "generator": "Overpass API 0.7.62.11 87bfad18", "osm3s": {"timestamp_osm_base": "2026-07-02T20:19:01Z", "copyright": "The data included in this document is from www.openstreetmap.org. The data is made available under ODbL."}, "elements": [{"type": "node", "id": 672140173, "lat": 41.3836486, "lon": 2.1695479, "tags": {"name": "Boix", "name:ca": "Boix", "shop": "bakery"}}, {"type": "node", "id": 1277576571, "lat": 41.3830987, "lon": 2.177326, "tags": {"addr:housename": "Horno Sant Jordi S.L.", "addr:housenumber": "8", "addr:postcode": "08002", "addr:street": "Carrer de la Llibreteria", "cuisine": "spanish", "designation": "Horno de pan", "name": "Horno Sant Jordi S.L.", "old_name": "Fundada 1798", "shop": "bakery"}}, {"type": "node", "id": 1596371261, "lat": 41.3820054, "lon": 2.1880447, "tags": {"name": "Forn de pa Balboa", "name:ca": "Forn de pa Balboa", "shop": "bakery"}}, {"type": "node", "id": 1709793864, "lat": 41.3750944, "lon": 2.1710992, "tags": {"addr:housenumber": "54", "addr:postcode": "08001", "addr:street": "Avinguda del Paral\u00b7lel", "amenity": "cafe", "brand": "365", "brand:wikidata": "Q135921692", "cuisine": "coffee_shop", "internet_access": "wlan", "name": "365", "opening_hours": "Mo-Su 06:00-22:00", "shop": "bakery", "takeaway": "yes"}}, {"type": "node", "id": 1717732248, "lat": 41.3811616, "lon": 2.1795361, "tags": {"addr:housenumber": "12", "addr:postcode": "08002", "addr:street": "Carrer del Regomir", "name": "Forn Sol\u00e1", "shop": "bakery"}}, {"type": "node", "id": 2326130736, "lat": 41.3828354, "lon": 2.1686987, "tags": {"addr:city": "Barcelona", "addr:housenumber": "12", "addr:postcode": "08001", "addr:street": "Carrer del Doctor Dou", "name": "Pa de Kilo", "old_name": "Barcelona Reykjavik", "shop": "bakery"}}, {"type": "node", "id": 2434529465, "lat": 41.3800227, "lon": 2.1888614, "tags": {"addr:city": "Barcelona", "addr:housenumber": "38", "addr:postcode": "08003", "addr:street": "Carrer del Baluard", "alt_name": "Forn Baluard Barceloneta", "name": "Baluard", "opening_hours": "Mo-Sa 09:00-21:00", "phone": "+34 93 221 1208", "shop": "bakery", "website": "https://baluardbarceloneta.com/"}}, {"type": "node", "id": 2437987603, "lat": 41.3805787, "lon": 2.180002, "tags": {"addr:housenumber": "33", "addr:postcode": "08002", "addr:street": "Carrer Ample", "name": "Forn de la Vila", "name:ca": "Forn de la Vila", "shop": "bakery"}}, {"type": "node", "id": 3328694168, "lat": 41.3894098, "lon": 2.1717886, "tags": {"addr:housenumber": "80", "addr:street": "Carrer de Pau Claris", "name": "Forn de pastes", "name:ca": "Forn de pastes", "shop": "bakery"}}, {"type": "node", "id": 4098982711, "lat": 41.3826331, "lon": 2.1818054, "tags": {"addr:street": "Carrer dels Agullers", "name": "Forn de la Vilamala", "name:ca": "Forn de la Vilamala", "shop": "bakery"}}, {"type": "node", "id": 4137545889, "lat": 41.3850546, "lon": 2.1826676, "tags": {"addr:city": "Barcelona", "addr:housenumber": "44", "addr:postcode": "08003", "addr:street": "Carrer dels Flassaders", "name": "Patisseria Hofmann", "opening_hours": "Mo-Sa 09:00-20:00; Su 09:00-19:00", "operator": "Hofmann", "phone": "+34 932 68 82 21", "shop": "bakery", "website": "https://hofmannpasteleria.com/"}}, {"type": "node", "id": 4149862954, "lat": 41.3801339, "lon": 2.1796136, "tags": {"addr:housenumber": "27", "addr:postcode": "08002", "addr:street": "Carrer Ample", "amenity": "restaurant", "name": "Forneria Tiana", "name:ca": "Forneria Tiana", "shop": "bakery"}}, {"type": "node", "id": 4254730727, "lat": 41.3893923, "lon": 2.1743981, "tags": {"amenity": "cafe", "brand": "365", "brand:wikidata": "Q135921692", "cuisine": "coffee_shop", "name": "365", "name:ca": "365", "opening_hours": "Mo-Su 06:00-22:00+", "payment:credit_cards": "yes", "payment:debit_cards": "yes", "shop": "bakery", "takeaway": "yes", "wheelchair": "yes"}}, {"type": "node", "id": 4319362789, "lat": 41.3828951, "lon": 2.1728035, "tags": {"addr:housenumber": "11", "addr:street": "Carrer de Petritxol", "name": "La Pallaresa", "name:ca": "La Pallaresa", "opening_hours": "Mo-Su 09:00-13:00, 16:00-21:00", "shop": "bakery"}}, {"type": "node", "id": 4663728890, "lat": 41.3866168, "lon": 2.1754164, "tags": {"addr:street": "Via Laietana", "amenity": "cafe", "brand": "365", "brand:wikidata": "Q135921692", "cuisine": "coffee_shop", "internet_access": "wlan", "name": "365", "name:ca": "365", "opening_hours": "Mo-Su 06:00-22:00", "shop": "bakery", "takeaway": "yes"}}, {"type": "node", "id": 4727974997, "lat": 41.3906677, "lon": 2.1801418, "tags": {"addr:housenumber": "15", "addr:street": "Passeig de Llu\u00eds Companys", "check_date": "2023-10-10", "name": "El Nostre Pa", "name:ca": "El Nostre Pa", "shop": "bakery", "wheelchair": "limited"}}, {"type": "node", "id": 4759560834, "lat": 41.389133, "lon": 2.1812621, "tags": {"addr:housenumber": "8", "addr:street": "Carrer del Comer\u00e7", "name": "Bendito Pecado", "shop": "bakery"}}, {"type": "node", "id": 5020833121, "lat": 41.3842684, "lon": 2.1826746, "tags": {"addr:housenumber": "10", "addr:street": "Passeig del Born", "check_date": "2023-10-29", "name": "Funky Bakers", "shop": "bakery", "website": "https://funkybakers.com/"}}, {"type": "node", "id": 5031146535, "lat": 41.382239, "lon": 2.1751246, "tags": {"addr:housenumber": "8", "addr:postcode": "08002", "addr:street": "Carrer dels Banys Nous", "name": "Xurreria dels Banys Nous", "name:ca": "Xurreria dels Banys Nous", "opening_hours": "Mo-Tu, Th-Fr 07:00-13:30, 15:30-20:15; Sa 07:00-14:00, 15:30-20:30; Su 07:00-14:30, 16:30-20:30", "shop": "bakery", "takeaway": "only"}}, {"type": "node", "id": 5132624422, "lat": 41.3799247, "lon": 2.1688204, "tags": {"addr:street": "Carrer de l'Hospital", "amenity": "cafe", "brand": "365", "brand:wikidata": "Q135921692", "cuisine": "coffee_shop", "internet_access": "wlan", "name": "365", "opening_hours": "Mo-Su 06:00-22:00", "shop": "bakery", "takeaway": "yes"}}, {"type": "node", "id": 5156647126, "lat": 41.384888, "lon": 2.1790763, "tags": {"addr:street": "Pla\u00e7a de la Llana", "name": "Forn la Llana", "name:ca": "Forn la Llana", "shop": "bakery", "wheelchair": "limited"}}, {"type": "node", "id": 5203976021, "lat": 41.3848001, "lon": 2.1679413, "tags": {"addr:street": "Carrer dels Tallers", "indoor_seating": "no", "name": "El mos", "name:ca": "El mos", "outdoor_seating": "no", "shop": "bakery", "takeaway": "only", "wheelchair": "yes"}}, {"type": "node", "id": 5203976028, "lat": 41.3911139, "lon": 2.1713003, "tags": {"addr:street": "Carrer de Roger de Ll\u00faria", "check_date": "2026-01-13", "name": "Villa Bakery", "old_name": "L'ART del PA", "opening_hours": "Mo-Sa 08:00-20:00; PH,Su 08:00-15:00", "shop": "bakery"}}, {"type": "node", "id": 5244477821, "lat": 41.3866782, "lon": 2.1737169, "tags": {"addr:housenumber": "21", "addr:street": "Carrer Comtal", "name": "Fleca Comtal", "name:ca": "Fleca Comtal", "shop": "bakery"}}, {"type": "node", "id": 5385698722, "lat": 41.3807389, "lon": 2.1747901, "tags": {"check_date": "2026-01-31", "indoor_seating": "yes", "name": "Forns Del Pi", "outdoor_seating": "no", "shop": "bakery"}}, {"type": "node", "id": 5504881622, "lat": 41.3883348, "lon": 2.1788504, "tags": {"indoor_seating": "no", "name": "L\u00f3pez", "outdoor_seating": "no", "payment:credit_cards": "yes", "payment:debit_cards": "yes", "shop": "bakery", "takeaway": "only"}}, {"type": "node", "id": 5692547821, "lat": 41.3868339, "lon": 2.178026, "tags": {"name": "MacxiPa", "shop": "bakery"}}, {"type": "node", "id": 5902468989, "lat": 41.3819485, "lon": 2.1663543, "tags": {"name": "Jhelum", "shop": "bakery"}}, {"type": "node", "id": 5917833465, "lat": 41.3769774, "lon": 2.1682326, "tags": {"addr:housenumber": "59", "addr:street": "Carrer de les Carretes", "name": "La Paloma Blanca", "pastry": "yes", "shop": "bakery"}}, {"type": "node", "id": 5924253708, "lat": 41.3814436, "lon": 2.1790189, "tags": {"addr:city": "Barcelona", "addr:housenumber": "4 Bis", "addr:postcode": "08002", "addr:street": "Carrer del Regomir", "email": "info@yellowbakery.es", "name": "Yellow Bakery", "phone": "+34 646 148 647", "shop": "bakery", "website": "https://yellowbakery.es/"}}, {"type": "node", "id": 6053049669, "lat": 41.3884175, "lon": 2.180728, "tags": {"name": "Forn de Pa", "name:ca": "Forn de Pa", "shop": "bakery"}}, {"type": "node", "id": 6295306685, "lat": 41.3828865, "lon": 2.1728944, "tags": {"addr:housenumber": "11", "addr:postcode": "08002", "addr:street": "Carrer de Petritxol", "name": "Petritxol Xocoa", "name:es": "Petritxol Cafe", "shop": "bakery"}}, {"type": "node", "id": 6298114061, "lat": 41.3854404, "lon": 2.1789322, "tags": {"addr:housenumber": "12", "addr:street": "Carrer de les Semoleres", "name": "L'Obrador del Born", "shop": "bakery"}}, {"type": "node", "id": 6707513029, "lat": 41.379188, "lon": 2.1769792, "tags": {"shop": "bakery", "wheelchair": "limited"}}, {"type": "node", "id": 6707513212, "lat": 41.3802874, "lon": 2.1770426, "tags": {"indoor_seating": "yes", "name": "Forneria Tiana", "name:ca": "Tiana 1", "outdoor_seating": "no", "shop": "bakery", "wheelchair": "limited"}}, {"type": "node", "id": 6786006490, "lat": 41.380015, "lon": 2.1668897, "tags": {"addr:housenumber": "97", "addr:street": "Carrer del Carme", "name": "Shalimar", "opening_hours": "Mo-Su 10:00-23:00", "shop": "bakery", "wheelchair": "limited"}}, {"type": "node", "id": 6786006785, "lat": 41.3796065, "lon": 2.1658989, "tags": {"name": "Forn del Padr\u00f3", "name:ca": "Forn del Padr\u00f3", "shop": "bakery"}}, {"type": "node", "id": 7006130688, "lat": 41.3900463, "lon": 2.1651423, "tags": {"check_date": "2024-01-16", "name": "Granja la Catalana", "shop": "bakery"}}, {"type": "node", "id": 7528231885, "lat": 41.3907976, "lon": 2.1721302, "tags": {"name": "Venecia", "opening_hours": "Mo-Fr 06:45-23:00; PH,Sa,Su 07:15-23:00", "shop": "bakery"}}, {"type": "node", "id": 7528235185, "lat": 41.3895318, "lon": 2.1715183, "tags": {"amenity": "cafe", "brand": "365", "brand:wikidata": "Q135921692", "cuisine": "coffee_shop", "name": "365", "name:ca": "365", "shop": "bakery", "takeaway": "yes"}}, {"type": "node", "id": 8308840717, "lat": 41.3806637, "lon": 2.1791186, "tags": {"addr:housenumber": "7", "addr:street": "Carrer de Milans", "name": "Donatella", "shop": "bakery"}}, {"type": "node", "id": 8511925334, "lat": 41.3851983, "lon": 2.1823496, "tags": {"addr:housenumber": "40", "addr:postcode": "08003", "addr:street": "Carrer dels Flassaders", "name": "Hofmann La Seca", "opening_hours": "Tu-Sa 09:00-20:30; Su 09:00-19:00", "phone": "+34932956509", "shop": "bakery", "website": "https://hofmann-bcn.com/"}}, {"type": "node", "id": 9324812868, "lat": 41.3796253, "lon": 2.1673886, "tags": {"addr:city": "Barcelona", "addr:housenumber": "118", "addr:postcode": "08001", "addr:street": "Carrer de l'Hospital", "name": "Fresco Sweets & Bakers", "opening_hours": "Mo-Su 10:00-22:30", "phone": "+34 933 29 29 13", "shop": "bakery", "website": "https://frescosweetsandbakers.negocio.site/"}}, {"type": "node", "id": 10173462664, "lat": 41.3835437, "lon": 2.1740232, "tags": {"name": "Croissanterie del Pi", "shop": "bakery"}}, {"type": "node", "id": 10287654875, "lat": 41.3852997, "lon": 2.1714323, "tags": {"name": "El mos", "opening_hours": "Mo-Su 07:00-20:45", "shop": "bakery"}}, {"type": "node", "id": 10782503755, "lat": 41.3737089, "lon": 2.1685462, "tags": {"name": "Forn Francesc Mir\u00f3", "shop": "bakery"}}, {"type": "node", "id": 10790819600, "lat": 41.3828931, "lon": 2.1691549, "tags": {"name": "Tartisse", "shop": "bakery"}}, {"type": "node", "id": 11032317021, "lat": 41.3750958, "lon": 2.1710672, "tags": {"addr:housenumber": "54", "addr:street": "Avinguda del Paral\u00b7lel", "amenity": "cafe", "branch": "Cafeteria Forn de Pa", "brand": "365", "brand:wikidata": "Q135921692", "cuisine": "coffee_shop", "name": "365", "shop": "bakery", "takeaway": "yes"}}, {"type": "node", "id": 11685323870, "lat": 41.3808318, "lon": 2.1714244, "tags": {"name": "Forns del Pi", "shop": "bakery"}}, {"type": "node", "id": 11687613888, "lat": 41.3864878, "lon": 2.1733578, "tags": {"amenity": "cafe", "brand": "365", "brand:wikidata": "Q135921692", "cuisine": "coffee_shop", "name": "365", "shop": "bakery", "takeaway": "yes"}}, {"type": "node", "id": 11711202669, "lat": 41.3868421, "lon": 2.1803016, "tags": {"name": "Pastisseria Artesana", "shop": "bakery"}}, {"type": "node", "id": 11728020169, "lat": 41.38632, "lon": 2.1813394, "tags": {"name:en": "Joncake", "shop": "bakery"}}, {"type": "node", "id": 13167152801, "lat": 41.3812164, "lon": 2.1684492, "tags": {"name": "a27 bakehouse", "shop": "bakery"}}, {"type": "node", "id": 13278668477, "lat": 41.373913, "lon": 2.1687953, "tags": {"brand": "Levaduramadre", "brand:wikidata": "Q134515949", "name": "Levaduramadre", "shop": "bakery"}}, {"type": "node", "id": 13666549401, "lat": 41.3892319, "lon": 2.1791002, "tags": {"brand": "Levaduramadre", "brand:wikidata": "Q134515949", "name": "Levaduramadre", "shop": "bakery"}}, {"type": "node", "id": 13739943602, "lat": 41.387969, "lon": 2.1787258, "tags": {"addr:housenumber": "55", "addr:street": "Carrer de Jaume Giralt", "check_date": "2026-04-18", "check_date:opening_hours": "2026-04-18", "name": "Pa de la Figuera", "opening_hours": "Mo-Su 08:00-22:00", "shop": "bakery"}}, {"type": "node", "id": 13774053001, "lat": 41.3872701, "lon": 2.1776061, "tags": {"name": "Jon Cake", "shop": "bakery"}}, {"type": "node", "id": 13914059201, "lat": 41.3847771, "lon": 2.1720929, "tags": {"name": "Marie Blach\u00e8re", "shop": "bakery"}}, {"type": "node", "id": 13970892802, "lat": 41.3814759, "lon": 2.1741854, "tags": {"name": "Mamma Tiramis\u00f9", "shop": "bakery"}}]}