{"version": 0.6, "generator": "Overpass API 0.7.62.11 87bfad18", "osm3s": {"timestamp_osm_base": "2026-07-02T18:55:44Z", "copyright": "The data included in this document is from www.openstreetmap.org. The data is made available under ODbL."}, "elements": [{"type": "node", "id": 21593238, "lat": 51.5163376, "lon": -0.119321, "tags": {"addr:city": "London", "addr:country": "GB", "addr:housenumber": "58", "addr:postcode": "WC2B 6DX", "addr:street": "Kingsway", "amenity": "bar", "brand": "All Bar One", "brand:wikidata": "Q4728624", "brand:wikipedia": "en:All Bar One", "check_date": "2026-04-04", "cocktails": "yes", "contact:phone": "+44 20 7269 5171", "contact:website": "http://www.allbarone.co.uk/all-bar-one-kingsway/", "fhrs:id": "424280", "name": "All Bar One", "opening_hours": "Mo-Th 09:00-23:00; Fr-Sa 09:00-24:00; Su 10:00-22:30", "opening_hours:food": "Mo-Sa 09:00-22:00; Su 10:00-22:00", "payment:cash": "yes", "payment:credit_cards": "yes", "payment:debit_cards": "yes", "toilets": "yes", "toilets:access": "customers", "wheelchair": "yes"}}, {"type": "node", "id": 26699553, "lat": 51.5145576, "lon": -0.1311237}, {"type": "node", "id": 266481945, "lat": 51.5108588, "lon": -0.1395168, "tags": {"addr:city": "London", "addr:housenumber": "15", "addr:postcode": "W1B 4BF", "addr:street": "Heddon Street", "amenity": "bar", "fhrs:confidence_management": "5", "fhrs:hygiene": "5", "fhrs:id": "412928", "fhrs:local_authority_id": "00982/0015/0/000", "fhrs:rating": "5", "fhrs:structural": "5", "name": "Tank & Paddle", "source:postcode": "FSA Food Hygiene Ratings Database", "website": "https://www.tankandpaddle.co.uk/heddon-street/"}}, {"type": "node", "id": 266481948, "lat": 51.5113103, "lon": -0.1398884, "tags": {"addr:city": "London", "addr:housenumber": "29-33", "addr:interpolation": "odd", "addr:postcode": "W1B 4BN", "addr:street": "Heddon Street", "amenity": "bar", "name": "Icebar", "opening_hours": "Mo 14:15-22:15; Tu-Th 13:30-23:00; Fr 13:30-00:30; Sa 10:30-01:15; Su 10:00-20:15", "toilets": "yes", "toilets:access": "customers", "website": "https://www.belowzeroicebar.com/"}}, {"type": "node", "id": 344652892, "lat": 51.507901, "lon": -0.131531, "tags": {"addr:city": "London", "addr:housenumber": "80", "addr:postcode": "SW1Y 4TE", "addr:street": "Haymarket", "amenity": "bar", "fhrs:confidence_management": "5", "fhrs:hygiene": "0", "fhrs:id": "410895", "fhrs:local_authority_id": "00095/0080/1/023", "fhrs:rating": "5", "fhrs:structural": "5", "name": "Riley's", "source:addr": "FSA Food Hygiene Ratings Database", "source:postcode": "FSA Food Hygiene Ratings Database", "wheelchair": "yes"}}, {"type": "node", "id": 345884989, "lat": 51.5117369, "lon": -0.129769}, {"type": "node", "id": 345885431, "lat": 51.5124709, "lon": -0.1332066}, {"type": "node", "id": 345886748, "lat": 51.5078488, "lon": -0.1241116, "tags": {"addr:city": "London", "addr:housenumber": "17", "addr:postcode": "WC2N 6NG", "addr:street": "The Arches", "amenity": "bar", "fhrs:id": "428163", "fhrs:local_authority_id": "01650/0017/0/000", "fhrs:rating": "4", "indoor_seating": "yes", "layer": "-1", "name": "Champagne Charlies", "operator": "Davy's", "outdoor_seating": "no", "real_ale": "yes", "source:addr": "FSA Food Hygiene Ratings Database", "source:postcode": "FSA Food Hygiene Ratings Database"}}, {"type": "node", "id": 348812894, "lat": 51.5109241, "lon": -0.1289596, "tags": {"wheelchair": "no"}}, {"type": "node", "id": 348875260, "lat": 51.512006, "lon": -0.133848, "tags": {"addr:city": "London", "addr:housenumber": "57", "addr:postcode": "W1D 7PJ", "addr:street": "Rupert Street", "amenity": "bar", "beer_garden": "yes", "contact:facebook": "https://www.facebook.com/yardbarsoho/", "contact:twitter": "https://twitter.com/theyardsoho", "email": "info@yardbar.co.uk", "fhrs:confidence_management": "20", "fhrs:hygiene": "5", "fhrs:id": "414117", "fhrs:local_authority_id": "01532/0057/0/000", "fhrs:rating": "1", "fhrs:structural": "5", "lgbtq": "primary", "name": "The Yard", "opening_hours": "Mo,Tu 14:00-23:30; We,Th 12:00-23:30; Fr,Sa 12:00-00:00; Su 12:00-22:30", "outdoor_seating": "yes", "payment:american_express": "no", "phone": "+44 20 7437 2652", "source:postcode": "FSA Food Hygiene Ratings Database", "website": "https://www.yardbar.co.uk/"}}, {"type": "node", "id": 371050910, "lat": 51.515471, "lon": -0.126639, "tags": {"addr:city": "London", "addr:housenumber": "198", "addr:street": "Shaftesbury Avenue", "amenity": "bar", "check_date": "2022-11-26", "cocktails": "yes", "indoor_seating": "yes", "internet_access": "wlan", "name": "Freud", "opening_hours": "Mo-We 16:00-24:00; Th-Fr 16:00-02:00; Sa 15:00-02:00; Su 16:00-23:00", "outdoor_seating": "no", "payment:credit_cards": "yes", "payment:debit_cards": "yes", "website": "https://www.freud.eu/", "wheelchair": "no"}}, {"type": "node", "id": 372519530, "lat": 51.5134461, "lon": -0.1315987, "tags": {"amenity": "bar", "live_music": "yes", "music_genre": "jazz", "name": "Upstairs @ Ronnie\u2019s", "source": "Company website", "toilets:wheelchair": "no", "website": "https://www.ronniescotts.co.uk/upstairsronnies", "wheelchair": "no"}}, {"type": "node", "id": 382512980, "lat": 51.5154983, "lon": -0.1344574, "tags": {"addr:city": "London", "addr:housenumber": "22", "addr:postcode": "W1F 8FR", "addr:street": "Great Chapel Street", "amenity": "bar", "check_date": "2025-08-26", "email": "ginclub@mr-foggs.com", "fhrs:id": "1226857", "indoor_seating": "yes", "level": "-1", "name": "Mr Fogg's Gin Club", "opening_hours": "Mo off; Tu 18:01-23:01; We-Sa 18:01-00:01; Su off", "outdoor_seating": "no", "phone": "+44 20 7223 5200", "source:addr": "FHRS Open Data", "website": "https://www.mr-foggs.com/gin-club/", "wheelchair": "no"}}, {"type": "node", "id": 401529129, "lat": 51.5126683, "lon": -0.1285727, "tags": {"addr:city": "London", "addr:housenumber": "76-78", "addr:postcode": "WC2H 0BN", "addr:street": "Charing Cross Road", "amenity": "bar", "check_date": "2026-02-19", "contact:website": "https://www.baaria.co.uk/", "indoor_seating": "yes", "name": "Baaria", "opening_hours": "08:00-22:30", "outdoor_seating": "yes"}}, {"type": "node", "id": 401529165, "lat": 51.5154731, "lon": -0.1291623}, {"type": "node", "id": 447874478, "lat": 51.5141153, "lon": -0.131302}, {"type": "node", "id": 490256491, "lat": 51.5126871, "lon": -0.1263254}, {"type": "node", "id": 496704390, "lat": 51.5164391, "lon": -0.140536}, {"type": "node", "id": 496704393, "lat": 51.5163456, "lon": -0.1404946}, {"type": "node", "id": 534993842, "lat": 51.5153397, "lon": -0.1224929, "tags": {"amenity": "bar", "name": "Guanabara"}}, {"type": "node", "id": 566152754, "lat": 51.500366, "lon": -0.1138525, "tags": {"addr:city": "London", "addr:housenumber": "133A", "addr:postcode": "SE1 7AE", "addr:street": "Lower Marsh", "alt_name:en": "Scooter Caffe", "amenity": "bar", "contact:facebook": "https://www.facebook.com/scootercaffe/", "contact:phone": "+44 20 7620 1421", "contact:website": "https://scootercaffe.com/", "fhrs:id": "484304", "internet_access": "wlan", "internet_access:fee": "customers", "name": "Scooter Caff\u00e9", "name:en": "Scooter Caffe", "opening_hours:covid19": "closed", "outdoor_seating": "yes", "source:addr": "FHRS Open Data"}}, {"type": "node", "id": 566357928, "lat": 51.512359, "lon": -0.133217, "tags": {"addr:city": "London", "addr:housenumber": "79", "addr:postcode": "W1D 6QB", "addr:street": "Wardour Street", "amenity": "bar", "contact:facebook": "https://www.facebook.com/pages/The-Friendly-Society/136813716365787", "fhrs:id": "1424051", "lgbtq": "primary", "name": "The Friendly Society", "outdoor_seating": "no", "payment:american_express": "yes", "smoking": "no", "wheelchair": "no"}}, {"type": "node", "id": 569524162, "lat": 51.5026134, "lon": -0.1168689, "tags": {"addr:city": "London", "addr:housenumber": "5", "addr:postcode": "SE1 7PJ", "addr:street": "Chicheley Street", "amenity": "bar", "brand": "Slug and Lettuce", "brand:wikidata": "Q7542224", "cocktails": "yes", "email": "slugandlettuce.countyhall@stonegatepubs.com", "fhrs:id": "484047", "food": "yes", "name": "Slug and Lettuce", "opening_hours": "Mo-Th 09:00-23:00; Fr 09:00-00:00; Sa 10:00-00:00; Su 10:00-22:30", "operator": "Stonegate", "operator:wikidata": "Q7619176", "phone": "+44 20 3375 6334", "source:addr": "FHRS Open Data", "toilets": "yes", "toilets:access": "customers", "website": "https://www.slugandlettuce.co.uk/county-hall", "wheelchair": "yes"}}, {"type": "node", "id": 569524165, "lat": 51.5026748, "lon": -0.1171122, "tags": {"addr:city": "London", "addr:housenumber": "1", "addr:postcode": "SE1 7PY", "addr:street": "Chicheley Street", "amenity": "bar", "brand": "All Bar One", "brand:wikidata": "Q4728624", "cocktails": "yes", "fhrs:id": "484046", "name": "All Bar One", "source:addr": "FHRS Open Data", "toilets:wheelchair": "yes", "website": "https://www.allbarone.co.uk/", "wheelchair": "yes"}}, {"type": "node", "id": 587768035, "lat": 51.5012906, "lon": -0.1158882, "tags": {"addr:city": "London", "amenity": "bar", "indoor_seating": "yes", "name": "Spectrum", "outdoor_seating": "yes"}}, {"type": "node", "id": 603120730, "lat": 51.5153996, "lon": -0.1266103, "tags": {"amenity": "bar", "check_date": "2026-05-08", "name": "Freud", "opening_hours": "Su-We 16:00-00:00; Th 16:00-01:00; Fr-Sa 16:00-03:00", "website": "http://freud.eu/"}}, {"type": "node", "id": 639114112, "lat": 51.5132096, "lon": -0.1309565, "tags": {"addr:city": "London", "addr:housenumber": "23-25", "addr:postcode": "W1D 5JL", "amenity": "bar", "check_date": "2026-06-26", "check_date:opening_hours": "2026-06-26", "fhrs:id": "412519", "name": "Bar Soho", "opening_hours": "Mo-Th 16:00-25:00; Fr 16:00-27:00; Sa 12:00-27:00; Su 12:00-25:00", "operator": "Stonegate", "operator:wikidata": "Q7619176", "outdoor_seating": "no", "website": "https://www.barsoho.co.uk/london-bar", "wheelchair": "no"}}, {"type": "node", "id": 639184315, "lat": 51.5089412, "lon": -0.1301099, "tags": {"amenity": "bar", "name": "Gravity"}}, {"type": "node", "id": 675938370, "lat": 51.5088286, "lon": -0.1358278, "tags": {"addr:city": "London", "addr:housenumber": "203-206", "addr:street": "Piccadilly", "amenity": "bar", "contact:phone": "+44 20 7851 2433", "level": "5", "name": "5th View"}}, {"type": "node", "id": 691719964, "lat": 51.5156823, "lon": -0.13583, "tags": {"addr:city": "London", "addr:housenumber": "201-203", "addr:postcode": "W1F 8ZD", "addr:street": "Wardour Street", "amenity": "bar", "brand": "Simmons Bars", "brand:wikidata": "Q109991573", "check_date": "2025-08-26", "cocktails": "yes", "indoor_seating": "yes", "name": "Simmons", "outdoor_seating": "no", "phone": "+44 20 3879 9251", "source:addr": "FSA Food Hygiene Ratings Database", "source:postcode": "FSA Food Hygiene Ratings Database", "website": "https://www.simmonsbar.co.uk/venues/oxford-street/"}}, {"type": "node", "id": 692190788, "lat": 51.5137372, "lon": -0.1299905, "tags": {"addr:city": "London", "addr:housenumber": "12", "addr:postcode": "W1D 4TF", "addr:street": "Old Compton Street", "amenity": "bar", "contact:facebook": "https://www.facebook.com/barswift/", "contact:instagram": "https://www.instagram.com/swiftbars/", "contact:twitter": "https://twitter.com/barswift/", "cuisine": "japanese", "email": "soho@barswift.com", "name": "Swift Bar", "opening_hours": "Mo-Th 12:00-22:30; Fr 12:00-22:45; Sa 12:30-22:45; Su 12:30-21:30", "phone": "+44 20 7439 2275", "website": "https://www.barswift.com/soho", "wheelchair": "no"}}, {"type": "node", "id": 751994484, "lat": 51.5153191, "lon": -0.1215131}, {"type": "node", "id": 821344055, "lat": 51.5108879, "lon": -0.124759, "tags": {"addr:city": "London", "addr:housenumber": "20", "addr:postcode": "WC2E 9HP", "addr:street": "Bedford Street", "amenity": "bar", "level": "-1", "name": "Adventure Bar", "old_name": "The bok bar", "wheelchair": "no"}}, {"type": "node", "id": 849731529, "lat": 51.5079091, "lon": -0.1233998}, {"type": "node", "id": 849731575, "lat": 51.5081061, "lon": -0.124242}, {"type": "node", "id": 849731635, "lat": 51.5081993, "lon": -0.1241099}, {"type": "node", "id": 849731668, "lat": 51.5079397, "lon": -0.1232366}, {"type": "node", "id": 849731685, "lat": 51.5076753, "lon": -0.124379, "tags": {"amenity": "bar", "layer": "-1", "name": "The Players"}}, {"type": "node", "id": 849731737, "lat": 51.5079755, "lon": -0.1232985}, {"type": "node", "id": 849731770, "lat": 51.5078593, "lon": -0.1233118}, {"type": "node", "id": 849731774, "lat": 51.5082537, "lon": -0.1245094}, {"type": "node", "id": 863838579, "lat": 51.5002908, "lon": -0.1139615, "tags": {"addr:housenumber": "130", "addr:street": "Lower Marsh", "amenity": "bar", "check_date": "2025-09-04", "name": "The Glitch", "wheelchair": "no"}}, {"type": "node", "id": 957226799, "lat": 51.5071208, "lon": -0.123176, "tags": {"addr:city": "London", "amenity": "bar"}}, {"type": "node", "id": 973036711, "lat": 51.5108156, "lon": -0.1241523}, {"type": "node", "id": 1089089330, "lat": 51.5128758, "lon": -0.1262322}, {"type": "node", "id": 1126076469, "lat": 51.5164662, "lon": -0.1404867}, {"type": "node", "id": 1126076475, "lat": 51.5164489, "lon": -0.140479}, {"type": "node", "id": 1155427053, "lat": 51.5117981, "lon": -0.1200785}, {"type": "node", "id": 1155427510, "lat": 51.5117915, "lon": -0.1202519}, {"type": "node", "id": 1155427587, "lat": 51.5118382, "lon": -0.1201352}, {"type": "node", "id": 1155427713, "lat": 51.511818, "lon": -0.1200781}, {"type": "node", "id": 1155428822, "lat": 51.5118079, "lon": -0.1200728}, {"type": "node", "id": 1155428996, "lat": 51.5117802, "lon": -0.1202842}, {"type": "node", "id": 1155429061, "lat": 51.5117316, "lon": -0.1202342}, {"type": "node", "id": 1156331117, "lat": 51.5107406, "lon": -0.124325}, {"type": "node", "id": 1156331216, "lat": 51.5107305, "lon": -0.124325}, {"type": "node", "id": 1156331283, "lat": 51.5106654, "lon": -0.1239777}, {"type": "node", "id": 1235254621, "lat": 51.5106373, "lon": -0.1373243, "tags": {"addr:city": "London", "addr:housenumber": "1-3", "addr:street": "Warwick Street", "amenity": "bar", "name": "The Warwick", "phone": "+44 20 7734 4409", "website": "https://www.thewarwick.co.uk/", "wheelchair": "yes"}}, {"type": "node", "id": 1494827525, "lat": 51.5129107, "lon": -0.1264668}, {"type": "node", "id": 1496726762, "lat": 51.5135795, "lon": -0.1389365}, {"type": "node", "id": 1584898715, "lat": 51.5147718, "lon": -0.1312752}, {"type": "node", "id": 1616149851, "lat": 51.5152806, "lon": -0.1215611}, {"type": "node", "id": 1663300874, "lat": 51.5103386, "lon": -0.1148168}, {"type": "node", "id": 1663300877, "lat": 51.5102961, "lon": -0.1150622}, {"type": "node", "id": 1663300881, "lat": 51.5103603, "lon": -0.1147457}, {"type": "node", "id": 1663300891, "lat": 51.5103937, "lon": -0.1148342}, {"type": "node", "id": 1663300901, "lat": 51.5103937, "lon": -0.1147618}, {"type": "node", "id": 1663300937, "lat": 51.5103169, "lon": -0.1151266}, {"type": "node", "id": 1663300942, "lat": 51.510352, "lon": -0.115081}, {"type": "node", "id": 1688441604, "lat": 51.5123972, "lon": -0.1333616}, {"type": "node", "id": 1688441606, "lat": 51.5123847, "lon": -0.1333456}, {"type": "node", "id": 1688441609, "lat": 51.5124424, "lon": -0.1333598}, {"type": "node", "id": 1688441619, "lat": 51.5124655, "lon": -0.1335403}, {"type": "node", "id": 1688441620, "lat": 51.5124982, "lon": -0.1332475}, {"type": "node", "id": 1688441621, "lat": 51.5125092, "lon": -0.1334454}, {"type": "node", "id": 1688441622, "lat": 51.5125465, "lon": -0.1333232}, {"type": "node", "id": 1688441623, "lat": 51.5125486, "lon": -0.1333568}, {"type": "node", "id": 1688441626, "lat": 51.5125496, "lon": -0.1333412}, {"type": "node", "id": 1700436086, "lat": 51.5124579, "lon": -0.1332028}, {"type": "node", "id": 1700436179, "lat": 51.5127304, "lon": -0.1333582}, {"type": "node", "id": 1700436198, "lat": 51.5127805, "lon": -0.1333993}, {"type": "node", "id": 1700436200, "lat": 51.5127881, "lon": -0.1332237}, {"type": "node", "id": 1700436238, "lat": 51.5128378, "lon": -0.1332629}, {"type": "node", "id": 1823304353, "lat": 51.5114683, "lon": -0.1343524}, {"type": "node", "id": 1895129841, "lat": 51.5119972, "lon": -0.1368571, "tags": {"addr:city": "London", "addr:housenumber": "4", "addr:postcode": "W1F 9HT", "addr:street": "Golden Square", "amenity": "bar", "brand": "Simmons Bars", "brand:wikidata": "Q109991573", "check_date": "2025-07-02", "cocktails": "yes", "name": "Simmons Bar", "phone": "+44 20 7287 9241", "website": "https://www.graphicbar.com/", "wheelchair": "yes"}}, {"type": "node", "id": 1970109640, "lat": 51.5128178, "lon": -0.1263496}, {"type": "node", "id": 2007363135, "lat": 51.5143314, "lon": -0.1321408, "tags": {"addr:city": "London", "addr:housenumber": "62", "addr:postcode": "W1D 3JN", "addr:street": "Frith Street", "amenity": "bar", "check_date": "2025-06-17", "contact:instagram": "https://www.instagram.com/circa_soho/", "contact:twitter": "https://twitter.com/circa_soho", "fhrs:confidence_management": "10", "fhrs:hygiene": "5", "fhrs:id": "413674", "fhrs:local_authority_id": "01333/0062/0/002", "fhrs:rating": "2", "fhrs:structural": "15", "lgbtq": "primary", "name": "Circa", "outdoor_seating": "yes", "payment:american_express": "yes", "website": "https://www.circasoho.com/"}}, {"type": "node", "id": 2069574552, "lat": 51.5105809, "lon": -0.1241712}, {"type": "node", "id": 2121751856, "lat": 51.5137299, "lon": -0.1418164}, {"type": "node", "id": 2121751865, "lat": 51.5137345, "lon": -0.1417337}, {"type": "node", "id": 2121751871, "lat": 51.5137414, "lon": -0.1416971}, {"type": "node", "id": 2121751873, "lat": 51.5137435, "lon": -0.1417405}, {"type": "node", "id": 2121751876, "lat": 51.5137673, "lon": -0.141709}, {"type": "node", "id": 2121751882, "lat": 51.5137837, "lon": -0.1416945}, {"type": "node", "id": 2121751891, "lat": 51.5137912, "lon": -0.1416722}, {"type": "node", "id": 2121751897, "lat": 51.5138438, "lon": -0.1418729}, {"type": "node", "id": 2121751899, "lat": 51.5138735, "lon": -0.1417107}, {"type": "node", "id": 2345097969, "lat": 51.5096941, "lon": -0.1319415}, {"type": "node", "id": 2345097970, "lat": 51.5096387, "lon": -0.132084}, {"type": "node", "id": 2345097971, "lat": 51.5096666, "lon": -0.1320131}, {"type": "node", "id": 2345097972, "lat": 51.5097247, "lon": -0.131863}, {"type": "node", "id": 2345097976, "lat": 51.5096907, "lon": -0.1321336}, {"type": "node", "id": 2345097984, "lat": 51.5098094, "lon": -0.1319432}, {"type": "node", "id": 2408458176, "lat": 51.5124823, "lon": -0.1332263, "tags": {"entrance": "main", "wheelchair": "no"}}, {"type": "node", "id": 2408458177, "lat": 51.5124911, "lon": -0.1334843, "tags": {"entrance": "yes"}}, {"type": "node", "id": 2520452028, "lat": 51.5163696, "lon": -0.1403545}, {"type": "node", "id": 2520452029, "lat": 51.5164795, "lon": -0.1404089}, {"type": "node", "id": 2536731363, "lat": 51.5126124, "lon": -0.1263475}, {"type": "node", "id": 2559609959, "lat": 51.5114905, "lon": -0.1339152, "tags": {"addr:city": "London", "addr:housenumber": "3-4", "addr:street": "Archer Street", "amenity": "bar", "name": "Archer Street", "website": "https://archerstreet.co.uk/"}}, {"type": "node", "id": 2559609967, "lat": 51.5115174, "lon": -0.1341995}, {"type": "node", "id": 2769456213, "lat": 51.513644, "lon": -0.1387862}, {"type": "node", "id": 2769456221, "lat": 51.5136901, "lon": -0.1388321}, {"type": "node", "id": 2784434360, "lat": 51.5129318, "lon": -0.1395735}, {"type": "node", "id": 2784434397, "lat": 51.5129845, "lon": -0.1394632}, {"type": "node", "id": 2784434403, "lat": 51.513002, "lon": -0.1394263}, {"type": "node", "id": 2784434404, "lat": 51.5130103, "lon": -0.1390729}, {"type": "node", "id": 2784434408, "lat": 51.513018, "lon": -0.1394462}, {"type": "node", "id": 2784434412, "lat": 51.51304, "lon": -0.1394005}, {"type": "node", "id": 2784434414, "lat": 51.5130851, "lon": -0.138907}, {"type": "node", "id": 2784434423, "lat": 51.5131571, "lon": -0.1389908}, {"type": "node", "id": 2784434428, "lat": 51.5131967, "lon": -0.1390367}, {"type": "node", "id": 2784434430, "lat": 51.5131911, "lon": -0.1392917}, {"type": "node", "id": 2784434434, "lat": 51.5132348, "lon": -0.1390811}, {"type": "node", "id": 2784434439, "lat": 51.5132683, "lon": -0.1391201}, {"type": "node", "id": 2823668249, "lat": 51.5153533, "lon": -0.1217139}, {"type": "node", "id": 2823668254, "lat": 51.515393, "lon": -0.1216666}, {"type": "node", "id": 2832750931, "lat": 51.5155049, "lon": -0.1290934}, {"type": "node", "id": 2832750937, "lat": 51.5155668, "lon": -0.1291649}, {"type": "node", "id": 2832750939, "lat": 51.5155922, "lon": -0.1293027}, {"type": "node", "id": 2832750942, "lat": 51.5156216, "lon": -0.12923}, {"type": "node", "id": 2833445974, "lat": 51.5145958, "lon": -0.1309414}, {"type": "node", "id": 2833445978, "lat": 51.5146231, "lon": -0.1311669}, {"type": "node", "id": 2833445982, "lat": 51.5146572, "lon": -0.1310274}, {"type": "node", "id": 2833445984, "lat": 51.514631, "lon": -0.1311725}, {"type": "node", "id": 2833445992, "lat": 51.5146793, "lon": -0.1312088}, {"type": "node", "id": 2833446000, "lat": 51.5147336, "lon": -0.1310031}, {"type": "node", "id": 2833448425, "lat": 51.514771, "lon": -0.1310282}, {"type": "node", "id": 2833448440, "lat": 51.5148564, "lon": -0.1302934}, {"type": "node", "id": 2833448443, "lat": 51.5148723, "lon": -0.1302221}, {"type": "node", "id": 2833448452, "lat": 51.5149288, "lon": -0.1303316}, {"type": "node", "id": 2833448453, "lat": 51.5149489, "lon": -0.1302573}, {"type": "node", "id": 2834177467, "lat": 51.5148171, "lon": -0.1311092}, {"type": "node", "id": 2835480069, "lat": 51.5139399, "lon": -0.1307057, "tags": {"colour": "darkgreen", "erected_by": "City of Westminster", "historic": "memorial", "level": "1", "memorial": "plaque", "name": "Peter Cook", "openplaques:id": "1961", "scheme": "City of Westminster Green Plaques"}}, {"type": "node", "id": 2835480098, "lat": 51.5139842, "lon": -0.130738}, {"type": "node", "id": 2835483003, "lat": 51.5140481, "lon": -0.1305122}, {"type": "node", "id": 2835483046, "lat": 51.5144625, "lon": -0.1310617}, {"type": "node", "id": 2835483048, "lat": 51.5145079, "lon": -0.1308844}, {"type": "node", "id": 2835483052, "lat": 51.51451, "lon": -0.1310936}, {"type": "node", "id": 2835483053, "lat": 51.514554, "lon": -0.1309142}, {"type": "node", "id": 2837648110, "lat": 51.5140678, "lon": -0.1311882}, {"type": "node", "id": 2837648111, "lat": 51.5140741, "lon": -0.1311696}, {"type": "node", "id": 2837648113, "lat": 51.5141275, "lon": -0.1311583}, {"type": "node", "id": 2837648115, "lat": 51.5141568, "lon": -0.1311788}, {"type": "node", "id": 2837936158, "lat": 51.5139393, "lon": -0.1320841}, {"type": "node", "id": 2837936173, "lat": 51.5140513, "lon": -0.1312565}, {"type": "node", "id": 2842926233, "lat": 51.5077643, "lon": -0.1370037, "tags": {"addr:city": "London", "addr:housenumber": "13", "addr:street": "Mason's Yard", "amenity": "bar", "name": "The Scotch of St James", "wikidata": "Q7435547", "wikipedia": "en:The Scotch of St. James"}}, {"type": "node", "id": 2850023501, "lat": 51.5139173, "lon": -0.1321523}, {"type": "node", "id": 2850023513, "lat": 51.5140516, "lon": -0.1322417}, {"type": "node", "id": 2850023514, "lat": 51.514044, "lon": -0.1321866}, {"type": "node", "id": 2850023518, "lat": 51.5140623, "lon": -0.1322006}, {"type": "node", "id": 2905796901, "lat": 51.5110792, "lon": -0.1361391, "tags": {"addr:city": "London", "addr:housenumber": "77", "addr:postcode": "W1F 9ZN", "addr:street": "Brewer Street", "amenity": "bar", "name": "Clays Soho", "opening_hours": "Mo 16:00-22:00, Tu,We 12:00-24:00, Th-Sa 12:00-01:00, Su 12:00-22:00", "website": "https://clays.bar/soho"}}, {"type": "node", "id": 2905887101, "lat": 51.5115708, "lon": -0.1344159, "tags": {"addr:city": "London", "addr:housenumber": "21", "addr:postcode": "W1D 7LB", "addr:street": "Great Windmill Street", "amenity": "bar", "name": "Kultured", "website": "https://kultured.co.uk/"}}, {"type": "node", "id": 2916237763, "lat": 51.5117626, "lon": -0.1186761, "tags": {"amenity": "bar", "name": "Radio Rooftop Bar", "wheelchair": "yes"}}, {"type": "node", "id": 2942641848, "lat": 51.5141105, "lon": -0.1366214}, {"type": "node", "id": 3058770654, "lat": 51.511837, "lon": -0.13856, "tags": {"amenity": "bar", "brand": "Be At One", "brand:wikidata": "Q110016786", "cocktails": "yes", "name": "Be At One"}}, {"type": "node", "id": 3064885078, "lat": 51.5123667, "lon": -0.1334212}, {"type": "node", "id": 3123726786, "lat": 51.5068888, "lon": -0.1256307, "tags": {"addr:city": "London", "addr:country": "GB", "addr:housenumber": "8", "addr:postcode": "WC2N 5BY", "addr:street": "Northumberland Avenue", "amenity": "bar", "fhrs:id": "780915", "name": "Boyds Grill & Wine Bar"}}, {"type": "node", "id": 3357929194, "lat": 51.5087707, "lon": -0.1372057, "tags": {"amenity": "bar", "name": "Swans Bar"}}, {"type": "node", "id": 3357929212, "lat": 51.5071719, "lon": -0.1414051, "tags": {"amenity": "bar", "check_date": "2026-03-04", "indoor_seating": "yes", "name": "The Rivoli Bar", "outdoor_seating": "no", "wheelchair": "limited"}}, {"type": "node", "id": 3546349672, "lat": 51.5058725, "lon": -0.1399203, "tags": {"amenity": "bar", "name": "The American Bar, The Stafford Hotel"}}, {"type": "node", "id": 3796258892, "lat": 51.5116706, "lon": -0.1220387, "tags": {"addr:city": "London", "addr:country": "GB", "addr:housename": "Jubilee Market", "addr:housenumber": "35", "addr:postcode": "WC2E 8BE", "addr:street": "The Piazza, Covent Garden", "amenity": "bar", "check_date": "2025-11-26", "contact:phone": "+44 20 3146 9637", "contact:website": "https://www.stereocoventgarden.com/", "fhrs:id": "1581012", "name": "STEREO"}}, {"type": "node", "id": 3827161422, "lat": 51.5108166, "lon": -0.1201278, "tags": {"amenity": "bar", "name": "Oche", "website": "https://oche.com/uk/london"}}, {"type": "node", "id": 3845915784, "lat": 51.5075969, "lon": -0.1136504, "tags": {"amenity": "bar", "check_date": "2026-02-13", "contact:website": "https://understudysouthbank.co.uk/", "indoor_seating": "yes", "level": "0", "name": "The Understudy", "opening_hours": "Mo-We 12:00-24:00; Th-Sa 12:00-01:00", "outdoor_seating": "yes", "payment:cash": "yes", "payment:credit_cards": "yes", "payment:debit_cards": "yes", "wheelchair": "yes"}}, {"type": "node", "id": 3898185143, "lat": 51.5114251, "lon": -0.1194239, "tags": {"addr:city": "London", "addr:housenumber": "0", "addr:postcode": "WC2E 7DN", "addr:street": "Aldwych", "amenity": "bar", "contact:website": "http://www.cellardoor.biz/", "level": "-1", "name": "Cellar Door", "smoking": "no", "wheelchair": "no"}}, {"type": "node", "id": 4175100638, "lat": 51.5118473, "lon": -0.1295389}, {"type": "node", "id": 4175100640, "lat": 51.5117845, "lon": -0.1294841, "tags": {"entrance": "shop"}}, {"type": "node", "id": 4356348697, "lat": 51.5131766, "lon": -0.1251435, "tags": {"addr:city": "London", "addr:housenumber": "5", "addr:postcode": "WC2H 9JA", "addr:street": "Langley Street", "amenity": "bar", "check_date": "2024-08-23", "name": "Rucola", "website": "https://foundation-bar.co.uk/"}}, {"type": "node", "id": 4360084491, "lat": 51.5117548, "lon": -0.131365, "tags": {"addr:city": "London", "addr:housenumber": "15-16", "addr:interpolation": "all", "addr:postcode": "W1D 6JB", "addr:street": "Gerrard Street", "amenity": "bar", "fhrs:id": "641298", "level": "2-4", "name": "Opium", "opening_hours": "24/7", "phone": "+44 20 7734 7276", "website": "https://www.opiumchinatown.com/"}}, {"type": "node", "id": 4360209691, "lat": 51.5142416, "lon": -0.14087, "tags": {"addr:city": "London", "addr:housenumber": "30", "addr:street": "Argyll Street", "amenity": "bar", "description": "5th Floor 240 Regent Street (Entrance 30 Argyll Street)", "name": "Aqua Spirit", "website": "https://aquaspirit.co.uk/"}}, {"type": "node", "id": 4680953869, "lat": 51.5098801, "lon": -0.1293978, "tags": {"amenity": "bar", "check_date": "2022-10-28", "historic:amenity": "restaurant", "level": "0", "name": "At The Hampshire", "old_name": "FIshCo", "outdoor_seating": "yes", "source": "survey", "wheelchair": "no"}}, {"type": "node", "id": 4699715433, "lat": 51.5127936, "lon": -0.1135446, "tags": {"addr:city": "London", "addr:housenumber": "1", "addr:postcode": "WC2R 3LL", "addr:street": "Milford Lane", "amenity": "bar", "brand": "Simmons Bars", "brand:wikidata": "Q109991573", "cocktails": "yes", "name": "Simmons Bars", "old_name": "The Temple Bar", "phone": "+44 20 3909 5270", "website": "https://www.simmonsbar.co.uk/venues/temple/"}}, {"type": "node", "id": 4709189064, "lat": 51.5147692, "lon": -0.136366}, {"type": "node", "id": 4709189065, "lat": 51.5147437, "lon": -0.1364433}, {"type": "node", "id": 4709189073, "lat": 51.5147373, "lon": -0.1363389}, {"type": "node", "id": 4709189074, "lat": 51.5145961, "lon": -0.1362217}, {"type": "node", "id": 4709189075, "lat": 51.5147124, "lon": -0.1364167}, {"type": "node", "id": 4709189076, "lat": 51.5145712, "lon": -0.1362989}, {"type": "node", "id": 4709189418, "lat": 51.514193, "lon": -0.1363467}, {"type": "node", "id": 4709189419, "lat": 51.5141682, "lon": -0.1366622}, {"type": "node", "id": 4709189420, "lat": 51.5142509, "lon": -0.1363946}, {"type": "node", "id": 4718984435, "lat": 51.5141238, "lon": -0.1366308, "tags": {"entrance": "yes", "note": "Entrance to no. 6A"}}, {"type": "node", "id": 4718984436, "lat": 51.5141549, "lon": -0.1366528, "tags": {"entrance": "main", "note": "Entrance to Barrio?"}}, {"type": "node", "id": 4718985833, "lat": 51.5145917, "lon": -0.1362354, "tags": {"entrance": "main"}}, {"type": "node", "id": 4774214523, "lat": 51.5129165, "lon": -0.1208851, "tags": {"amenity": "bar", "brand": "Be At One", "brand:wikidata": "Q110016786", "cocktails": "yes", "name": "Be At One", "operator": "Stonegate", "operator:wikidata": "Q7619176", "website": "https://www.beatone.co.uk/russell-street-covent-garden", "wheelchair": "no"}}, {"type": "node", "id": 4778412048, "lat": 51.5113778, "lon": -0.1207138, "tags": {"amenity": "bar", "name": "The Nook Sports Bar"}}, {"type": "node", "id": 4800206587, "lat": 51.5099144, "lon": -0.1231263, "tags": {"addr:city": "London", "addr:housenumber": "417", "addr:postcode": "WC2R 0PD", "addr:street": "Strand", "amenity": "bar", "check_date": "2023-09-23", "fhrs:id": "428150", "level": "0", "name": "The Port House", "payment:american_express": "yes", "source:addr": "FHRS Open Data", "wheelchair": "limited"}}, {"type": "node", "id": 4854756569, "lat": 51.5107886, "lon": -0.1289923}, {"type": "node", "id": 4854756571, "lat": 51.5108402, "lon": -0.1289991}, {"type": "node", "id": 4855571418, "lat": 51.5140613, "lon": -0.131964, "tags": {"addr:city": "London", "addr:housenumber": "56-57", "addr:postcode": "W1D 3JG", "addr:street": "Frith Street", "amenity": "bar", "check_date": "2025-06-17", "email": "info@mimishotelsoho.com", "fhrs:id": "949286", "name": "Henson\u2019s Bar", "phone": "+44 20 8017 9100", "website": "https://mimishotelsoho.com/"}}, {"type": "node", "id": 4860978078, "lat": 51.5097273, "lon": -0.1321688}, {"type": "node", "id": 4870230621, "lat": 51.5124364, "lon": -0.1385235, "tags": {"addr:city": "London", "addr:housenumber": "13", "addr:street": "Kingly Court", "amenity": "bar", "check_date": "2025-08-19", "name": "Cahoots", "name:en": "Cahoots", "opening_hours": "24/7", "wheelchair": "no"}}, {"type": "node", "id": 4872154792, "lat": 51.5110845, "lon": -0.1288884, "tags": {"addr:city": "London", "addr:housenumber": "44-46", "addr:postcode": "WC2H 7AN", "addr:street": "Cranbourn Street", "amenity": "bar", "fhrs:id": "414381", "indoor_seating": "yes", "level": "-1", "name": "Cork & Bottle Wine Bar", "outdoor_seating": "no", "source:addr": "FHRS Open Data", "source:postcode": "FHRS Open Data", "wheelchair": "no"}}, {"type": "node", "id": 4878423881, "lat": 51.5118279, "lon": -0.1295189, "tags": {"entrance": "shop"}}, {"type": "node", "id": 4917918321, "lat": 51.5136688, "lon": -0.1297828, "tags": {"addr:city": "London", "addr:housenumber": "7", "addr:street": "Old Compton Street", "amenity": "bar", "name": "Bar Termini", "opening_hours": "Mo-Th 07:30-23:30; Fr 07:30-00:00; Sa 09:00-00:00; Su 10:30-22:30"}}, {"type": "node", "id": 4972504270, "lat": 51.5100034, "lon": -0.1306168, "tags": {"addr:city": "London", "addr:housenumber": "46", "addr:postcode": "WC2H 7LU", "addr:street": "Leicester Square", "amenity": "bar", "brand": "All Bar One", "brand:wikidata": "Q4728624", "check_date": "2025-05-07", "cocktails": "yes", "cuisine": "international", "email": "leicestersquare@allbarone.co.uk", "name": "All Bar One", "phone": "+44 20 3846 1451", "wheelchair": "yes"}}, {"type": "node", "id": 5180196621, "lat": 51.5017194, "lon": -0.1196312, "tags": {"addr:city": "London", "amenity": "bar", "name": "Marriott Gillray\u2019s Steakhouse & Bar"}}, {"type": "node", "id": 5207369221, "lat": 51.5119236, "lon": -0.1310333, "tags": {"addr:city": "London", "addr:housenumber": "13", "addr:postcode": "W1D 5PS", "addr:street": "Gerrard Street", "amenity": "bar", "fhrs:id": "412640", "level": "1;2", "name": "Experimental Cocktail Club", "source:addr": "FHRS Open Data", "source:postcode": "FHRS Open Data"}}, {"type": "node", "id": 5273528326, "lat": 51.5004932, "lon": -0.129778, "tags": {"addr:city": "London", "addr:housenumber": "10", "addr:street": "Storey's Gate", "amenity": "bar", "level": "-1", "name": "Storey's Wine Bar"}}, {"type": "node", "id": 5335967421, "lat": 51.5110031, "lon": -0.1143845, "tags": {"amenity": "bar", "name": "Bar Salsa", "operator": "Stonegate", "operator:wikidata": "Q7619176", "website": "https://www.bar-salsa.com/temple", "wheelchair": "yes"}}, {"type": "node", "id": 5426571724, "lat": 51.5146674, "lon": -0.131034}, {"type": "node", "id": 5426645563, "lat": 51.514016, "lon": -0.1306764, "tags": {"addr:city": "London", "addr:housenumber": "17", "addr:street": "Greek Street", "amenity": "bar", "brand": "Be At One", "brand:wikidata": "Q110016786", "cocktails": "yes", "name": "Be At One", "operator": "Stonegate", "operator:wikidata": "Q7619176", "website": "https://www.beatone.co.uk/greek-street-soho"}}, {"type": "node", "id": 5426645564, "lat": 51.5139287, "lon": -0.130697}, {"type": "node", "id": 5426645565, "lat": 51.5139886, "lon": -0.1304706}, {"type": "node", "id": 5430565222, "lat": 51.513328, "lon": -0.1305273, "tags": {"addr:city": "London", "addr:housenumber": "40", "addr:street": "Greek Street", "amenity": "bar", "check_date": "2025-06-13", "name": "Cafe Boheme"}}, {"type": "node", "id": 5432805294, "lat": 51.5140511, "lon": -0.1321607}, {"type": "node", "id": 5444033099, "lat": 51.512971, "lon": -0.1263457}, {"type": "node", "id": 5444033104, "lat": 51.512647, "lon": -0.1262778}, {"type": "node", "id": 5444033105, "lat": 51.512652, "lon": -0.1263973}, {"type": "node", "id": 5444033107, "lat": 51.5129594, "lon": -0.1263324}, {"type": "node", "id": 5444033108, "lat": 51.5128829, "lon": -0.1262406}, {"type": "node", "id": 5471268685, "lat": 51.5140119, "lon": -0.1349238, "tags": {"addr:city": "London", "addr:housenumber": "8", "addr:street": "Broadwick Street", "amenity": "bar", "name": "Basement Sate", "website": "https://www.basementsate.com/"}}, {"type": "node", "id": 5485777717, "lat": 51.5114663, "lon": -0.1343243}, {"type": "node", "id": 5485779226, "lat": 51.5115434, "lon": -0.1344375}, {"type": "node", "id": 5485793229, "lat": 51.5116029, "lon": -0.1342989}, {"type": "node", "id": 5486438559, "lat": 51.5149415, "lon": -0.1337852, "tags": {"addr:city": "London", "addr:housenumber": "41", "addr:postcode": "W1D 7NB", "addr:street": "Great Windmill St", "amenity": "bar", "name": "The Piano Bar Soho"}}, {"type": "node", "id": 5499048127, "lat": 51.5108399, "lon": -0.1346273, "tags": {"amenity": "bar", "name": "Press Juice Bar", "website": "https://press-london.com"}}, {"type": "node", "id": 5564840374, "lat": 51.5136254, "lon": -0.1389875}, {"type": "node", "id": 5564840375, "lat": 51.5136427, "lon": -0.1390066}, {"type": "node", "id": 5564840376, "lat": 51.5136515, "lon": -0.1389268}, {"type": "node", "id": 5564840377, "lat": 51.5136809, "lon": -0.1389578}, {"type": "node", "id": 5564840378, "lat": 51.5136544, "lon": -0.1390196}, {"type": "node", "id": 5572572357, "lat": 51.512215, "lon": -0.1383961, "tags": {"addr:city": "London", "addr:housenumber": "4", "addr:street": "Kingly Court", "amenity": "bar", "name": "Disrepute", "website": "https://www.disrepute.co.uk/"}}, {"type": "node", "id": 5574997254, "lat": 51.5129773, "lon": -0.1396291}, {"type": "node", "id": 5574997255, "lat": 51.5130697, "lon": -0.1394373}, {"type": "node", "id": 5589808322, "lat": 51.5134362, "lon": -0.1418099, "tags": {"addr:city": "London", "addr:housenumber": "14", "addr:street": "Maddox Street", "amenity": "bar", "level": "-1", "name": "Karaoke box", "phone": "+44 20 7493 8800", "website": "http://website.karaokebox.co.uk/mayfair/"}}, {"type": "node", "id": 5636440981, "lat": 51.5130654, "lon": -0.1419465, "tags": {"addr:city": "London", "addr:housenumber": "23", "addr:street": "Maddox Street", "amenity": "bar", "name": "Joe & The Juice", "website": "https://www.joejuice.com/stores/uk/maddox-street/", "wheelchair": "limited"}}, {"type": "node", "id": 5725782622, "lat": 51.5074085, "lon": -0.1291428, "tags": {"addr:city": "London", "addr:housenumber": "2", "addr:postcode": "SW1A 2TS", "addr:street": "Spring Gardens", "amenity": "bar", "contact:phone": "+44 20 7870 2900", "name": "The Rooftop St. James", "outdoor_seating": "yes", "weather_protection": "awning"}}, {"type": "node", "id": 6044678286, "lat": 51.5138855, "lon": -0.1263863, "tags": {"amenity": "bar", "indoor_seating": "yes", "name": "The Escapologist", "outdoor_seating": "no", "wheelchair": "no"}}, {"type": "node", "id": 6107217185, "lat": 51.509812, "lon": -0.1236075, "tags": {"addr:city": "London", "addr:housenumber": "1a", "addr:postcode": "WC2E 9HH", "addr:street": "Bedford Street", "amenity": "bar", "fhrs:id": "413217", "indoor_seating": "yes", "name": "Mr Fogg's Society of Exploration", "outdoor_seating": "no", "phone": "+44 20 7590 5255", "source:addr": "FHRS Open Data", "website": "https://www.mr-foggs.com/", "wheelchair": "no"}}, {"type": "node", "id": 6124611920, "lat": 51.5159278, "lon": -0.1406746, "tags": {"addr:city": "London", "addr:housename": "Portland House", "addr:housenumber": "4", "addr:postcode": "W1W 8QJ", "addr:street": "Great Portland Street", "amenity": "bar", "check_date": "2025-12-23", "fhrs:id": "1302726", "indoor_seating": "yes", "name": "London Cocktail Club", "outdoor_seating": "yes", "source:addr": "FHRS Open Data", "website": "https://www.londoncocktailclub.co.uk/oxford-circus/"}}, {"type": "node", "id": 6333416686, "lat": 51.507935, "lon": -0.1382684, "tags": {"amenity": "bar", "name": "45 Jermyn Street", "wheelchair": "no"}}, {"type": "node", "id": 6386688885, "lat": 51.5104254, "lon": -0.1170722, "tags": {"amenity": "bar", "name": "San Miguel Terrace bar (summer only)"}}, {"type": "node", "id": 6386762785, "lat": 51.512108, "lon": -0.1185791, "tags": {"amenity": "bar", "check_date": "2023-12-22", "name": "Radio Rooftop Bar", "wheelchair": "yes"}}, {"type": "node", "id": 6535620516, "lat": 51.5064953, "lon": -0.1165432, "tags": {"amenity": "bar", "name": "Queen Elizabeth Roof Garden & Bar"}}, {"type": "node", "id": 6952789985, "lat": 51.5150535, "lon": -0.1333176, "tags": {"addr:city": "London", "addr:housenumber": "10", "addr:postcode": "W1D 3RD", "addr:street": "Dean Street", "amenity": "bar", "check_date": "2024-10-22", "fhrs:id": "427977", "indoor_seating": "yes", "name": "Jazz @ Pizza Express", "opening_hours": "Mo 11:30-23:30; Tu-Th 18:30-23:30; Fr 17:30-00:00; Sa 12:00-00:00; Su 12:00-23:00", "outdoor_seating": "no", "phone": "+44 20 7439 4962", "source:addr": "FHRS Open Data", "website": "https://pizzaexpresslive.com/", "wheelchair": "yes"}}, {"type": "node", "id": 7717850285, "lat": 51.5155639, "lon": -0.1363857, "tags": {"addr:city": "London", "addr:housenumber": "53-54", "addr:postcode": "W1F 8SP", "addr:street": "Berwick Street", "amenity": "bar", "check_date": "2025-11-03", "leisure": "amusement_arcade", "name": "NQ64", "opening_hours": "Mo-Fr 15:00-27:00; Sa 12:00-27:00; Su 12:00-24:00", "website": "https://nq64.co.uk/soho"}}, {"type": "node", "id": 7777211385, "lat": 51.5111212, "lon": -0.1333774, "tags": {"addr:city": "London", "addr:housenumber": "36", "addr:postcode": "W1D 7EP", "addr:street": "Shaftesbury Avenue", "amenity": "bar", "fhrs:id": "413570", "name": "rumba"}}, {"type": "node", "id": 8868988383, "lat": 51.5111184, "lon": -0.1341875, "tags": {"amenity": "bar", "name": "Jack Solomons"}}, {"type": "node", "id": 9175585929, "lat": 51.5149943, "lon": -0.1302799}, {"type": "node", "id": 9175585930, "lat": 51.5149851, "lon": -0.1303272}, {"type": "node", "id": 9175585931, "lat": 51.5149357, "lon": -0.1303044}, {"type": "node", "id": 9176403572, "lat": 51.5117982, "lon": -0.1294883}, {"type": "node", "id": 9176403573, "lat": 51.5117686, "lon": -0.1294977}, {"type": "node", "id": 9195722799, "lat": 51.5118145, "lon": -0.1297938}, {"type": "node", "id": 9196521448, "lat": 51.5107973, "lon": -0.1288748}, {"type": "node", "id": 9196521449, "lat": 51.5109178, "lon": -0.1288687}, {"type": "node", "id": 9196521450, "lat": 51.5109377, "lon": -0.1290458}, {"type": "node", "id": 9196521451, "lat": 51.5109514, "lon": -0.1291353}, {"type": "node", "id": 9196521453, "lat": 51.5109579, "lon": -0.129132}, {"type": "node", "id": 9196521454, "lat": 51.5109445, "lon": -0.1290431}, {"type": "node", "id": 9196521455, "lat": 51.5109154, "lon": -0.1288697}, {"type": "node", "id": 9196521456, "lat": 51.5109311, "lon": -0.1289568}, {"type": "node", "id": 9196521460, "lat": 51.5109053, "lon": -0.1288352}, {"type": "node", "id": 9196521461, "lat": 51.5109078, "lon": -0.1288349}, {"type": "node", "id": 9196521462, "lat": 51.5109108, "lon": -0.1288383}, {"type": "node", "id": 9196521466, "lat": 51.5108221, "lon": -0.1291902}, {"type": "node", "id": 9196521467, "lat": 51.5108312, "lon": -0.1291313}, {"type": "node", "id": 9196521468, "lat": 51.51085, "lon": -0.1291356}, {"type": "node", "id": 9196521469, "lat": 51.5108607, "lon": -0.1291316}, {"type": "node", "id": 9196521470, "lat": 51.5108557, "lon": -0.1290823}, {"type": "node", "id": 9196521471, "lat": 51.5108346, "lon": -0.1290907}, {"type": "node", "id": 9196521472, "lat": 51.5108482, "lon": -0.1291864}, {"type": "node", "id": 9196521473, "lat": 51.5109561, "lon": -0.1291657}, {"type": "node", "id": 9502835617, "lat": 51.5111233, "lon": -0.1325192, "tags": {"amenity": "bar", "name": "The Mulwray"}}, {"type": "node", "id": 10251693509, "lat": 51.5135061, "lon": -0.1220957, "tags": {"amenity": "bar", "name": "Side Hustle"}}, {"type": "node", "id": 10693880892, "lat": 51.5147752, "lon": -0.1310779}, {"type": "node", "id": 10693880893, "lat": 51.5147867, "lon": -0.1310383}, {"type": "node", "id": 10693880897, "lat": 51.5146373, "lon": -0.1310136}, {"type": "node", "id": 10693880900, "lat": 51.5146475, "lon": -0.1309773}, {"type": "node", "id": 10978406409, "lat": 51.5119536, "lon": -0.1275696, "tags": {"amenity": "bar", "contact:facebook": "https://www.facebook.com/CoventGardenSC/", "contact:instagram": "coventgardensocialclub", "level": "-1", "name": "Covent Garden Social Club", "website": "https://coventgardensocialclub.co.uk/"}}, {"type": "node", "id": 11052596810, "lat": 51.5056254, "lon": -0.124317, "tags": {"addr:city": "London", "addr:housenumber": "2a", "addr:postcode": "SW1A 2EJ", "addr:street": "Whitehall Court", "alt_name": "Equus Bar at The Royal Horseguards Hotel", "amenity": "bar", "email": "stay.royalhorseguards@guoman.com", "name": "Equus Bar", "phone": "+44 20 7523 5062", "website": "https://www.guoman.com/the-royal-horseguards/restaurants-and-bars/equus-bar"}}, {"type": "node", "id": 11220598674, "lat": 51.5096514, "lon": -0.1320965}, {"type": "node", "id": 11225891677, "lat": 51.5001825, "lon": -0.1141051, "tags": {"addr:city": "London", "addr:housenumber": "137", "addr:postcode": "SE1 7AE", "addr:street": "Lower Marsh", "amenity": "bar", "bar": "wine", "contact:email": "waterloo@unwinedbars.co.uk", "contact:phone": "+44 20 7803 9035", "contact:website": "https://unwinedbars.co.uk", "diet:gluten_free": "yes", "diet:vegan": "yes", "diet:vegetarian": "yes", "fhrs:id": "1469452", "food": "yes", "level": "0", "name": "Unwined in Waterloo", "opening_hours": "Mo-Fr 16:00-23:00", "outdoor_seating": "yes", "source:addr": "FHRS Open Data", "website:menu": "http://unwinedbars.co.uk/welcome/#menus-section"}}, {"type": "node", "id": 11230560302, "lat": 51.5129576, "lon": -0.1293576, "tags": {"addr:city": "London", "addr:housenumber": "136", "addr:street": "Shaftesbury Avenue", "amenity": "bar", "indoor_seating": "yes", "name": "Below Stone Nest", "outdoor_seating": "no"}}, {"type": "node", "id": 11555019775, "lat": 51.5153024, "lon": -0.1223197, "tags": {"addr:city": "London", "addr:postcode": "WC2B 5PW", "addr:street": "Parker Street", "amenity": "bar", "name": "Piano Works West-End"}}, {"type": "node", "id": 11581831870, "lat": 51.5153836, "lon": -0.1289974, "tags": {"addr:city": "London", "addr:housenumber": "1", "addr:street": "Denmark Street", "amenity": "bar", "check_date": "2026-02-08", "contact:instagram": "thirteen_ldn", "name": "Thirt3en", "website": "https://www.thirteenldn.com/"}}, {"type": "node", "id": 11964327570, "lat": 51.5111253, "lon": -0.1326307, "tags": {"amenity": "bar", "name": "The Blue Posts"}}, {"type": "node", "id": 11989049172, "lat": 51.5095672, "lon": -0.1261435, "tags": {"amenity": "bar", "check_date": "2024-07-07", "internet_access": "wlan", "internet_access:fee": "customers", "name": "Tequila Mockingbird"}}, {"type": "node", "id": 12083746969, "lat": 51.5147314, "lon": -0.1311959, "tags": {"addr:city": "London", "addr:housenumber": "5", "amenity": "bar", "name": "Louche", "name:en": "Louche Soho", "opening_hours": "Mo-Su 17:00-01:00", "website": "https://louchesoho.com/"}}, {"type": "node", "id": 12162543201, "lat": 51.5108198, "lon": -0.1336464, "tags": {"addr:city": "London", "addr:housenumber": "20", "addr:street": "Shaftesbury Avenue", "amenity": "bar", "brewery": "various", "check_date": "2025-09-21", "cuisine": "german", "internet_access": "wlan", "internet_access:fee": "customers", "microbrewery": "no", "name": "Albert's Schloss - London", "opening_hours": "Mo-Su 10:00-02:00", "outdoor_seating": "no", "payment:apple_pay": "yes", "payment:cash": "yes", "payment:contactless": "yes", "payment:credit_cards": "yes", "payment:debit_cards": "yes", "payment:google_pay": "yes", "smoking": "no", "website:menu": "https://albertsschloss.com/menu/"}}, {"type": "node", "id": 12242124301, "lat": 51.5151691, "lon": -0.1293733, "tags": {"amenity": "bar", "check_date": "2025-04-02", "name": "Dram"}}, {"type": "node", "id": 12242566001, "lat": 51.5126845, "lon": -0.1316475, "tags": {"amenity": "bar", "name": "Mr Fogg's Pawnbrokers"}}, {"type": "node", "id": 12244918801, "lat": 51.5108214, "lon": -0.1392748, "tags": {"amenity": "bar", "name": "HDN"}}, {"type": "node", "id": 12244969401, "lat": 51.5084834, "lon": -0.1415516, "tags": {"amenity": "bar", "name": "42 at Gymkhana"}}, {"type": "node", "id": 12248980301, "lat": 51.5122668, "lon": -0.1215109, "tags": {"amenity": "bar", "name": "Dovetail"}}, {"type": "node", "id": 12345146601, "lat": 51.5127313, "lon": -0.1385291, "tags": {"amenity": "bar", "name": "Nightjar Carnaby"}}, {"type": "node", "id": 12349017101, "lat": 51.5116069, "lon": -0.134434, "tags": {"amenity": "bar", "name": "The Thin White Duke"}}, {"type": "node", "id": 12349074001, "lat": 51.5123461, "lon": -0.134233, "tags": {"amenity": "bar", "name": "Bar Lina Soho"}}, {"type": "node", "id": 12507179080, "lat": 51.5102834, "lon": -0.1291634, "tags": {"addr:city": "London", "addr:housenumber": "28a", "addr:postcode": "WC2H 7LE", "addr:street": "Leicester Square", "amenity": "bar", "brand": "Simmons Bars", "brand:wikidata": "Q109991573", "cocktails": "yes", "name": "Simmons Bars", "phone": "+44 20 3780 2075", "website": "https://www.simmonsbar.co.uk/venues/leicester-square/"}}, {"type": "node", "id": 12723565027, "lat": 51.5156609, "lon": -0.1311123, "tags": {"amenity": "bar", "check_date": "2025-05-13", "check_date:opening_hours": "2025-05-13", "name": "21Soho", "opening_hours:signed": "no"}}, {"type": "node", "id": 12748370389, "lat": 51.5082904, "lon": -0.1243047}, {"type": "node", "id": 12748370391, "lat": 51.5083, "lon": -0.1242912}, {"type": "node", "id": 12748370392, "lat": 51.5082756, "lon": -0.1242464}, {"type": "node", "id": 12748370398, "lat": 51.5082136, "lon": -0.1241362}, {"type": "node", "id": 12748384702, "lat": 51.5083372, "lon": -0.1243906}, {"type": "node", "id": 12920872810, "lat": 51.5162566, "lon": -0.1339106, "tags": {"addr:city": "London", "addr:housenumber": "70-88", "addr:postcode": "W1D 1BP", "addr:street": "Oxford Street", "amenity": "bar", "branch": "London Oxford Street", "check_date": "2025-06-16", "indoor_seating": "yes", "name": "Boom Battle Bar", "opening_hours": "Mo,Tu 11:30-23:30; We 11:30-24:00; Th,Fr 11:30-26:00; Sa 10:00-26:00; Su 11:30-22:30", "outdoor_seating": "no", "website": "https://boombattlebar.com/uk/london-oxford-street/"}}, {"type": "node", "id": 12971234554, "lat": 51.510382, "lon": -0.1350814, "tags": {"amenity": "bar", "check_date": "2025-10-13", "check_date:opening_hours": "2025-10-13", "name": "Black Tap", "opening_hours": "Mo-Th 11:00-23:30, Fr,Sa 11:00-24:00, Su 11:00-22:00"}}, {"type": "node", "id": 13273139801, "lat": 51.510663, "lon": -0.1342831, "tags": {"addr:city": "London", "addr:housenumber": "23", "addr:street": "Shaftesbury Avenue", "amenity": "bar", "name": "Box Game Changer", "website": "https://www.theboxbar.co.uk/bars/london-piccadilly"}}, {"type": "node", "id": 13290010041, "lat": 51.5114702, "lon": -0.1192686, "tags": {"addr:city": "London", "addr:housenumber": "0", "addr:postcode": "WC2R 0HS", "addr:street": "Aldwych", "amenity": "bar", "level": "-1", "name": "CellarDoor", "opening_hours": "16:00-01:00", "phone": "+44 207 240 8848", "website": "https://cellardoor.london/", "wheelchair": "no"}}, {"type": "node", "id": 13458460865, "lat": 51.5137398, "lon": -0.1255745, "tags": {"addr:city": "London", "addr:housenumber": "50", "addr:street": "Earlham Street", "amenity": "bar", "billiards:fee": "yes", "billiards:pool": "1", "darts": "3", "darts:fee": "yes", "darts:type": "e_darts", "description": "A hip bar featuring live TV sports, karaoke, pool, darts, and table tennis", "name": "Bat & Ball Covent Garden", "sport": "billiards;darts;table_tennis", "table_tennis": "3", "website": "https://www.thebatandball.com/locations/covent-garden"}}, {"type": "node", "id": 13461061541, "lat": 51.5134787, "lon": -0.1249086, "tags": {"amenity": "bar", "check_date": "2026-01-16", "name": "Old Brewer's Yard", "outdoor_seating": "yes", "payment:apple_pay": "yes", "payment:cash": "yes", "payment:contactless": "yes", "payment:credit_cards": "yes", "payment:debit_cards": "yes", "payment:google_pay": "yes"}}, {"type": "node", "id": 13546608838, "lat": 51.5122351, "lon": -0.122823, "tags": {"amenity": "bar", "check_date": "2026-02-12", "level": "-1", "name": "Cache Cache"}}, {"type": "node", "id": 13547039540, "lat": 51.5111469, "lon": -0.1311854, "tags": {"addr:city": "London", "addr:housenumber": "1-2", "addr:postcode": "WC2H 7BL", "addr:street": "Leicester Street", "amenity": "bar", "check_date": "2026-02-12", "fhrs:id": "1740519", "name": "Asador Bar & Grill", "source:addr": "FHRS Open Data", "website": "https://asadorbargrill.co.uk/"}}, {"type": "node", "id": 13566401973, "lat": 51.5066069, "lon": -0.1149462, "tags": {"amenity": "bar", "check_date": "2026-02-15", "contact:website": "https://www.benugo.com/sites/restaurants/bfi-bar/", "name": "BFI Bar", "opening_hours": "Mo-We 15:00-22:00; Th 13:00-22:00; Fr-Sa 13:00-23:00; Su 13:00-21:00", "outdoor_seating": "no", "payment:cash": "yes", "payment:credit_cards": "yes", "payment:debit_cards": "yes", "smoking": "no", "wheelchair": "yes"}}, {"type": "node", "id": 13571496068, "lat": 51.5140986, "lon": -0.1311876}, {"type": "node", "id": 13571496069, "lat": 51.5141108, "lon": -0.1311464}, {"type": "node", "id": 13571496070, "lat": 51.5140481, "lon": -0.131254}, {"type": "node", "id": 13571496084, "lat": 51.5145862, "lon": -0.1310044}, {"type": "node", "id": 13571496085, "lat": 51.5145943, "lon": -0.1310089}, {"type": "node", "id": 13571496086, "lat": 51.5146021, "lon": -0.1309735}, {"type": "node", "id": 13571496087, "lat": 51.5145898, "lon": -0.1309661}, {"type": "node", "id": 13571496100, "lat": 51.5134023, "lon": -0.130948, "tags": {"addr:city": "London", "addr:housenumber": "30", "addr:postcode": "W1D 4UR", "addr:street": "Old Compton Street", "amenity": "bar", "fhrs:confidence_management": "10", "fhrs:hygiene": "10", "fhrs:id": "412523", "fhrs:local_authority_id": "00859/0030/0/000", "fhrs:rating": "3", "fhrs:structural": "5", "lgbtq": "primary", "name": "G-A-Y", "outdoor_seating": "no", "payment:american_express": "no", "smoking": "separated", "source": "Bing;photographic_survey;tags copied from node", "website": "http://www.g-a-y.co.uk", "wheelchair": "yes"}}, {"type": "node", "id": 13571511902, "lat": 51.5133753, "lon": -0.1312033, "tags": {"addr:city": "London", "addr:housenumber": "23", "addr:street": "Frith Street", "amenity": "bar", "check_date": "2025-06-13", "name": "The Black Box"}}, {"type": "node", "id": 13571511983, "lat": 51.514274, "lon": -0.1311615, "tags": {"addr:city": "London", "addr:housenumber": "53", "addr:postcode": "W1D 3DR", "addr:street": "Greek Street", "amenity": "bar", "fhrs:id": "410963", "fhrs:local_authority_id": "001382/0053/0/001", "indoor_seating": "yes", "name": "Thirst Bar", "outdoor_seating": "yes", "phone": "+44 20 7437 1977", "source": "Bing;photograph;tags copied from replaced node", "source:postcode": "FSA Food Hygiene Ratings Database", "website": "https://www.thirstbar.com/"}}, {"type": "node", "id": 13694805106, "lat": 51.5106282, "lon": -0.1355996, "tags": {"addr:city": "London", "addr:housenumber": "22", "addr:postcode": "W1F 7ED", "addr:street": "Sherwood Street", "amenity": "bar", "email": "reservations@brasseriezedel.com", "name": "Bar Am\u00e9ricain", "opening_hours": "Mo-Th 17:00-00:00, Fr 16:00-00:00, Sa 15:00-00:30, Su 16:00-23:00", "phone": "+4420 7734 4888", "website": "https://www.brasseriezedel.com/bar-americain/"}}, {"type": "node", "id": 13808620782, "lat": 51.5143482, "lon": -0.1265816, "tags": {"amenity": "bar", "name": "St. John"}}, {"type": "node", "id": 13895481182, "lat": 51.5003354, "lon": -0.1138976, "tags": {"amenity": "bar", "name": "Chunnel Bar"}}, {"type": "node", "id": 13968960248, "lat": 51.5130872, "lon": -0.1310348, "tags": {"addr:city": "London", "addr:country": "GB", "addr:housenumber": "25", "addr:postcode": "W1D 5LB", "addr:street": "Frith Street", "amenity": "bar", "check_date": "2026-06-26", "check_date:opening_hours": "2026-06-26", "contact:facebook": "kubarlondon", "contact:instagram": "kubarlondon", "email": "info@ku-bar.co.uk", "fhrs:id": "413661", "lgbtq": "primary", "min_age": "18", "name": "Little Ku", "opening_hours": "Mo off; Tu-Th 17:00-25:00; Fr 16:00-25:00; Sa 15:00-25:00; Su 15:00-24:00", "outdoor_seating": "yes", "phone": "+44 20 7437 4303", "website": "https://ku-bar.co.uk/little-ku", "wheelchair": "no", "wikimedia_commons": "File:Ku Bar, Soho, W1 (6377865779).jpg"}}, {"type": "way", "id": 71408528, "nodes": [849731770, 849731529, 849731737, 849731668, 849731770], "tags": {"addr:city": "London", "addr:floor": "Basement", "addr:housenumber": "47", "addr:postcode": "WC2N 6NE", "addr:street": "Villiers Street", "amenity": "bar", "building": "yes", "check_date": "2026-06-21", "check_date:opening_hours": "2026-06-21", "contact:phone": "+44 20 7930 1408", "fhrs:id": "411258", "name": "Gordon's Wine Bar", "opening_hours": "Mo-Sa 11:00-23:00; Su 12:00-22:00", "outdoor_seating": "yes", "source:addr": "FHRS Open Data", "website": "https://www.gordonswinebar.com/", "wheelchair": "no"}}, {"type": "way", "id": 71408536, "nodes": [12748384702, 849731774, 849731575, 849731635, 12748370398, 12748370392, 12748370391, 12748370389, 12748384702], "tags": {"addr:city": "London", "addr:housenumber": "6", "addr:postcode": "WC2N 6NQ", "addr:street": "Villiers Street", "amenity": "bar", "brand": "All Bar One", "brand:wikidata": "Q4728624", "brand:wikipedia": "en:All Bar One", "cocktails": "yes", "fhrs:id": "411246", "name": "All Bar One", "old_name": "ha ha bar & grill", "outdoor_seating": "no", "real_ale": "yes", "source:addr": "FHRS Open Data", "wheelchair": "yes"}}, {"type": "way", "id": 99952327, "nodes": [1155427587, 1155427713, 1155428822, 1155427053, 1155429061, 1155428996, 1155427510, 1155427587], "tags": {"addr:city": "London", "addr:postcode": "WC2E 7DA", "amenity": "bar", "brand": "Be At One", "brand:wikidata": "Q110016786", "building": "yes", "building:levels": "4", "building:material": "brick", "cocktails": "yes", "name": "Be At One", "operator": "Stonegate", "operator:wikidata": "Q7619176", "ref:GB:uprn": "10033578960;10033578961;10033657113;10033565694;100023430806;10033578962", "roof:colour": "grey", "website": "https://www.beatone.co.uk/lyceum-covent-garden"}}, {"type": "way", "id": 100013449, "nodes": [1156331283, 973036711, 1156331117, 1156331216, 2069574552, 1156331283], "tags": {"addr:city": "London", "addr:housenumber": "19", "addr:postcode": "WC2E 8QH", "amenity": "bar", "brand": "All Bar One", "brand:wikidata": "Q4728624", "brand:wikipedia": "en:All Bar One", "building": "yes", "building:colour": "white", "building:levels": "4", "cocktails": "yes", "fhrs:id": "411543", "fhrs:local_authority_id": "00478/0019/3/000", "name": "All Bar One", "operator": "Mitchells & Butlers plc", "real_ale": "no", "roof:colour": "darkgrey", "source:addr": "FSA Food Hygiene Ratings Database", "toilets": "yes", "toilets:access": "customers"}}, {"type": "way", "id": 153701571, "nodes": [1663300901, 1663300881, 1663300874, 1663300877, 1663300937, 1663300942, 1663300891, 1663300901], "tags": {"addr:city": "London", "addr:postcode": "WC2R 2PN", "addr:street": "Victoria Embankment", "amenity": "bar", "building": "boat", "fhrs:id": "294607", "name": "Bar & Co", "website": "https://barandcompany.com/", "wheelchair": "no"}}, {"type": "way", "id": 156614989, "nodes": [1688441621, 1688441623, 1688441626, 1688441622, 1688441620, 1688441609, 1688441621], "tags": {"addr:city": "London", "addr:postcode": "W1D 6QE", "amenity": "bar", "building": "yes", "building:levels": "4", "building:material": "brick", "name": "Soho Residence", "ref:GB:uprn": "100023471915", "roof:colour": "grey"}}, {"type": "way", "id": 157779573, "nodes": [1700436198, 1700436238, 1700436200, 1700436179, 1700436198], "tags": {"addr:city": "London", "addr:housenumber": "60-66", "addr:postcode": "W1F 0TA", "addr:street": "Wardour Street", "amenity": "bar", "fhrs:confidence_management": "10", "fhrs:hygiene": "10", "fhrs:id": "412179", "fhrs:local_authority_id": "00688/0060/1/009", "fhrs:rating": "3", "fhrs:structural": "10", "level": "0", "name": "Freedom Bar", "outdoor_seating": "yes", "source": "photograph", "source:addr": "FSA Food Hygiene Ratings Database", "source:postcode": "FSA Food Hygiene Ratings Database", "website": "https://freedombarsoho.com/", "wheelchair": "no"}}, {"type": "way", "id": 157779671, "nodes": [1688441609, 1688441621, 2408458177, 1688441619, 3064885078, 1688441604, 1688441606, 1700436086, 345885431, 2408458176, 1688441620, 1688441609], "tags": {"addr:city": "London", "addr:country": "GB", "addr:housenumber": "81", "addr:postcode": "W1D 6QD", "addr:street": "Wardour Street", "amenity": "bar", "building": "yes", "building:levels": "4", "fhrs:confidence_management": "5", "fhrs:hygiene": "10", "fhrs:id": "412183", "fhrs:local_authority_id": "00688/0081/0/001", "fhrs:rating": "3", "fhrs:structural": "10", "food": "no", "happy_hours": "Mo 16:00-01:00; Tu-Fr 16:00-20:00", "lgbtq": "primary", "name": "Village", "opening_hours": "Mo-Sa 16:00-01:00; Su 16:00-23:30", "outdoor_seating": "no", "payment:american_express": "yes", "payment:contactless": "yes", "phone": "+44 20 7434 2124", "roof:colour": "grey", "roof:levels": "1", "smoking": "outside", "source": "Bing;photographic_survey;tags copied from node", "toilets": "yes", "toilets:access": "customers", "toilets:female": "yes", "toilets:male": "yes", "toilets:unisex": "no", "toilets:wheelchair": "no", "website": "http://www.village-soho.co.uk", "wheelchair": "no", "wikimedia_commons": "File:Village_Bar.jpg"}}, {"type": "way", "id": 202193348, "nodes": [2121751897, 2121751899, 2121751891, 2121751882, 2121751876, 2121751871, 2121751865, 2121751873, 2121751856, 2121751897], "tags": {"addr:city": "London", "addr:country": "GB", "addr:housenumber": "19-20", "addr:postcode": "W1S 1YR", "addr:street": "Hanover Street", "amenity": "bar", "brand": "Slug and Lettuce", "brand:wikidata": "Q7542224", "building": "yes", "check_date": "2024-09-10", "cocktails": "yes", "food": "yes", "name": "The Slug and Lettuce", "operator": "Stonegate", "operator:wikidata": "Q7619176", "ref:GB:uprn": "100023470826;10033629623;10033570745;10033629624;10033628254;10033628255", "source": "Bing;survey", "website": "https://www.slugandlettuce.co.uk/hanover-street"}}, {"type": "way", "id": 225754347, "nodes": [2345097969, 2345097972, 2345097984, 4860978078, 2345097976, 11220598674, 2345097970, 2345097971, 2345097969], "tags": {"addr:city": "London", "addr:housenumber": "7", "addr:postcode": "SW1Y 4EE", "addr:street": "Oxendon Street", "amenity": "bar", "building": "yes", "fhrs:id": "413473", "level": "-1;0;1;2", "name": "The Coach House", "ref:GB:uprn": "100023349376;10033526149;10033584784;10033553926", "source:addr": "FHRS Open Data", "source:postcode": "FHRS Open Data"}}, {"type": "way", "id": 244772122, "nodes": [2520452028, 2520452029, 1126076469, 1126076475, 496704390, 496704393, 2520452028], "tags": {"addr:city": "London", "addr:housenumber": "11-13", "addr:postcode": "W1W 8AH", "addr:street": "Market Place", "amenity": "bar", "check_date": "2025-07-23", "food": "yes", "indoor_seating": "yes", "level": "0", "name": "The Oxford Market", "opening_hours": "Mo-We 08:00-00:00; Th-Fr 08:00-01:00; Sa 11:00-01:00; Su 11:00-23:00", "outdoor_seating": "yes", "phone": "+44 20 7079 2020", "smoking": "no", "website": "https://www.theoxfordmarket.co.uk/"}}, {"type": "way", "id": 249343302, "nodes": [2559609967, 5485793229, 5485779226, 1823304353, 5485777717, 2559609967], "tags": {"addr:city": "London", "addr:postcode": "W1D 7LB", "addr:street": "Great Windmill Street", "amenity": "bar", "brand": "Be At One", "brand:wikidata": "Q110016786", "building": "yes", "cocktails": "yes", "name": "Be at One", "operator": "Stonegate", "operator:wikidata": "Q7619176", "outdoor_seating": "no", "real_ale": "no", "ref:GB:uprn": "10033524476", "website": "https://www.beatone.co.uk/piccadilly-circus", "wheelchair": "yes"}}, {"type": "way", "id": 272019364, "nodes": [2769456221, 2769456213, 1496726762, 5564840374, 5564840375, 5564840378, 5564840377, 5564840376, 2769456221], "tags": {"addr:city": "London", "addr:country": "GB", "addr:housenumber": "12A", "addr:postcode": "W1F 7RR", "addr:street": "Newburgh Street", "amenity": "bar", "building": "retail", "building:colour": "#8A8485", "building:levels": "4", "building:material": "brick", "check_date": "2024-08-22", "cuisine": "french", "fhrs:id": "411143", "food": "yes", "indoor_seating": "yes", "name": "Antidote", "outdoor_seating": "yes", "payment:credit_cards": "yes", "payment:debit_cards": "yes", "phone": "+44 20 7287 8488", "roof:colour": "#848685", "source": "Bing;photograph", "website": "https://www.antidotewinebar.com/", "wheelchair": "no"}}, {"type": "way", "id": 273610368, "nodes": [2784434430, 2784434439, 2784434434, 2784434428, 2784434423, 2784434414, 2784434404, 2784434430], "tags": {"addr:city": "London", "addr:housenumber": "14-16", "addr:street": "Ganton Street", "amenity": "bar", "level": "0", "name": "Flare", "old_name": "Jakata London", "website": "https://www.flarecarnaby.com"}}, {"type": "way", "id": 273610380, "nodes": [5574997254, 2784434360, 2784434397, 2784434403, 2784434408, 2784434412, 5574997255, 5574997254], "tags": {"addr:city": "London", "addr:country": "GB", "addr:housenumber": "20", "addr:postcode": "W1B 5PZ", "addr:street": "Kingly Street", "amenity": "bar", "building": "yes", "building:colour": "white", "building:material": "sandstone", "contact:website": "http://www.aintnothinbut.co.uk/", "description": "Blues Bar", "fhrs:id": "412923", "indoor_seating": "yes", "name": "Ain't Nothing But...", "opening_hours": "Mo-Th 17:00-01:00; Fr 17:00-02:00; Sa 15:00-02:00; Su 15:00-23:30", "outdoor_seating": "yes", "ref:GB:uprn": "100023470404;10033650152;10033594489;10033594487;10033594485", "roof:colour": "silver", "roof:shape": "flat", "source": "Bing", "toilets": "yes", "toilets:access": "customers", "wheelchair": "no", "wheelchair:description": "Step at entrance; narrow"}}, {"type": "way", "id": 277929200, "nodes": [1616149851, 751994484, 2823668254, 2823668249, 1616149851], "tags": {"addr:city": "London", "addr:country": "GB", "addr:housenumber": "32", "addr:postcode": "WC2B 5AA", "addr:street": "Great Queen Street", "amenity": "bar", "building": "yes", "building:colour": "white", "building:levels": "4", "building:material": "plaster", "check_date": "2025-08-08", "cuisine": "english", "drink": "wine", "fhrs:id": "1206185", "name": "Lockes", "opening_hours": "Mo-Sa 12:00-22:30; Su 12:00-15:30", "phone": "+44 20 8091 5609", "roof:colour": "grey", "source": "Bing;photograph", "source:addr": "FHRS Open Data", "tourism": "yes", "website": "https://www.lockes.co.uk/", "wikidata": "Q7064599"}}, {"type": "way", "id": 279007871, "nodes": [2832750931, 401529165, 2832750939, 2832750942, 2832750937, 2832750931], "tags": {"addr:city": "London", "addr:housenumber": "26", "addr:postcode": "WC2H 8NL", "addr:street": "Denmark Street", "amenity": "bar", "building": "yes", "building:levels": "3", "building:material": "brick", "check_date": "2025-07-16", "cocktails": "yes", "live_music": "yes", "name": "The Lower Third", "roof:colour": "brown", "roof:levels": "1", "source": "Bing;photograph", "toilets:wheelchair": "yes", "was:name": "12 Bar Club", "website": "https://thelowerthird.co.uk/", "wheelchair": "yes", "wikidata": "Q4548683", "wikipedia": "en:12 Bar Club"}}, {"type": "way", "id": 279088481, "nodes": [5426571724, 2833445982, 10693880897, 10693880900, 2833445974, 13571496087, 13571496086, 13571496085, 13571496084, 26699553, 2833445978, 2833445984, 5426571724], "tags": {"addr:city": "London", "addr:housenumber": "7", "addr:postcode": "W1D 4DF", "addr:street": "Greek Street", "amenity": "bar", "brand": "Simmons Bars", "brand:wikidata": "Q109991573", "building": "yes", "building:architecture": "mock_tudor", "building:levels": "4", "check_date": "2025-05-07", "cocktails": "yes", "name": "Simmons", "old_name": "Pillars of Hercules", "opening_hours": "Mo-Th 15:00-23:30; Fr-Sa 15:00-24:00; Su 15:00-22:30", "phone": "+44 20 7377 1843", "ref:GB:uprn": "10033563972;10033563971;100023472386;100022758529;10033572427;10033621331;10033621330", "roof:colour": "grey", "source": "Bing;photograph", "toilets": "yes", "toilets:access": "customers", "wheelchair": "no", "wikidata": "Q4578879"}}, {"type": "way", "id": 279088487, "nodes": [2833448443, 2833448440, 2833448452, 9175585931, 9175585930, 9175585929, 2833448453, 2833448443], "tags": {"addr:city": "London", "addr:housenumber": "17", "addr:postcode": "W1D 4AS", "addr:street": "Manette Street", "amenity": "bar", "brand": "Simmons Bars", "brand:wikidata": "Q109991573", "building": "bar", "building:colour": "brown", "building:levels": "4", "building:material": "brick", "cocktails": "yes", "name": "Simmons Bar", "opening_hours": "Mo-Sa 16:00-03:00", "phone": "+44 20 3780 2072", "ref:GB:uprn": "10033537849;100023472459;100023472458;10033602448;10033636863;10033636862;10033636861;100023472265", "roof:colour": "brown", "source": "Bing;photograph", "website": "https://www.simmonsbar.co.uk/venues/tottenham-court-road/"}}, {"type": "way", "id": 279171114, "nodes": [2833445992, 1584898715, 2834177467, 10693880892, 10693880893, 2833448425, 2833446000, 2833445992], "tags": {"addr:city": "London", "addr:country": "GB", "addr:housenumber": "4-5", "addr:postcode": "W1D 4DD", "addr:street": "Greek Street", "amenity": "bar", "building": "yes", "building:levels": "4", "building:material": "brick", "name": "68 and Boston", "opening_hours": "Mo-Fr 17:00+; Sa 17:00-02:30", "roof:colour": "grey", "website": "http://www.68andboston.com/"}}, {"type": "way", "id": 279322541, "nodes": [2835483052, 2835483046, 2835483048, 2835483053, 2835483052], "tags": {"addr:city": "London", "addr:housenumber": "9", "addr:postcode": "W1D 4DQ", "addr:street": "Greek Street", "amenity": "bar", "building": "retail", "building:levels": "4", "building:material": "brick", "description": "\"Cocktail bar & restaurant\"", "name": "Jazz After Dark", "payment:american_express": "yes", "ref:GB:uprn": "10091857973;100023472294;10033593394;10033551268;100023604290;10033573278;10033573279", "roof:colour": "grey", "source": "Bing;photograph", "website": "http://www.jazzafterdark.co.uk/", "wheelchair": "no"}}, {"type": "way", "id": 279322559, "nodes": [2835480098, 2835480069, 5426645564, 5426645565, 2835483003, 2835480098], "tags": {"addr:city": "London", "addr:housenumber": "18", "addr:street": "Greek Street", "amenity": "bar", "building": "yes", "building:levels": "4", "building:material": "brick", "check_date": "2025-06-13", "name": "Zebrano", "outdoor_seating": "no", "roof:colour": "grey", "source": "Bing;photograph", "website": "http://www.zebranobars.com/", "wheelchair": "no", "wikidata": "Q7732531"}}, {"type": "way", "id": 279570939, "nodes": [447874478, 2837648115, 2837648113, 13571496069, 13571496068, 2837648111, 2837648110, 13571496070, 2837936173, 447874478], "tags": {"addr:city": "London", "addr:housenumber": "2", "addr:postcode": "W1D 4AE", "addr:street": "Bateman Street", "amenity": "bar", "brand": "Simmons Bars", "brand:wikidata": "Q109991573", "building": "yes", "building:colour": "white", "building:levels": "3", "building:material": "plaster", "check_date": "2025-05-07", "cocktails": "yes", "fhrs:id": "428022", "name": "Simmons Bars", "opening_hours": "Mo-Th 15:00-23:30; Fr-Sa 12:00-00:00; Su 15:00-22:30", "outdoor_seating": "no", "phone": "+44 20 3879 9244", "ref:GB:uprn": "100023472352;10033646378;10033646377;10033646376", "roof:colour": "grey", "website": "https://www.simmonsbar.co.uk/venues/soho/", "wheelchair": "limited"}}, {"type": "way", "id": 280980557, "nodes": [2837936158, 2850023501, 2850023513, 2850023518, 2850023514, 5432805294, 2837936158], "tags": {"addr:city": "London", "addr:housenumber": "16", "addr:postcode": "W1D 3AH", "addr:street": "Bateman Street", "amenity": "bar", "building": "yes", "building:colour": "white", "building:levels": "4", "building:material": "plaster", "name": "Pix Pintxos", "outdoor_seating": "no", "ref:GB:uprn": "100023472309;10033529406;10033525188;10033572723;10033572722;10033572725;10033572724;10033572727;10033572726;10033529407;100022724798", "source": "Bing;photograph", "source:addr": "extrapolation", "website": "http://www.pix-bar.com/soho.html", "wheelchair": "no"}}, {"type": "way", "id": 477598204, "nodes": [4709189076, 4709189075, 4709189065, 4709189064, 4709189073, 4709189074, 4718985833, 4709189076], "tags": {"addr:city": "London", "addr:housenumber": "12", "addr:postcode": "W1F 8DU", "addr:street": "D'Arblay Street", "amenity": "bar", "building": "commercial", "building:levels": "4", "building:material": "brick", "indoor_seating": "yes", "name": "House oft Cans", "opening_hours": "Mo-Sa 12:00-21:00, Sa 12:00-18:00", "outdoor_seating": "no", "ref:GB:uprn": "10033591859;10033601931;100023601512;10092022413;10033524378;10033524377;10033524376;100023471780;100023601517;10033627845;10033533074;10033591878;10033533073;10033628350;10033591873;10033591875", "wheelchair": "limited"}}, {"type": "way", "id": 477598219, "nodes": [4709189418, 4709189420, 4709189419, 4718984436, 4718984435, 2942641848, 4709189418], "tags": {"addr:city": "London", "addr:housenumber": "6", "addr:postcode": "W1F 8PS", "addr:street": "Poland Street", "amenity": "bar", "brand": "Barrio", "brand:wikidata": "Q114670989", "building": "yes", "building:levels": "4", "building:material": "brick", "cocktails": "yes", "fhrs:id": "411936", "name": "Barrio", "old_name": "Barrio Central", "opening_hours": "Mo-Fr 16:00-01:00;Sa-Su 15:00-01:00", "outdoor_seating": "yes", "phone": "+44 20 3230 1002", "source": "Bing;photograph", "website": "http://www.barriocentral.com", "wheelchair": "no"}}, {"type": "way", "id": 565171613, "nodes": [1494827525, 5444033099, 5444033107, 5444033108, 1089089330, 1970109640, 1494827525], "tags": {"amenity": "bar", "check_date": "2026-05-24", "level": "0", "name": "Dalla Terra"}}, {"type": "way", "id": 565171617, "nodes": [5444033105, 2536731363, 5444033104, 490256491, 5444033105], "tags": {"addr:city": "London", "addr:housenumber": "7-9", "addr:postcode": "WC2E 9AB", "addr:street": "Slingsby Place", "amenity": "bar", "email": "info@oriolebar.com", "level": "0", "name": "Oriole Bar", "website": "https://www.oriolebar.com"}}, {"type": "way", "id": 995869078, "nodes": [345884989, 9195722799, 4175100638, 4878423881, 9176403572, 4175100640, 9176403573, 345884989], "tags": {"addr:city": "London", "addr:housenumber": "29-30", "addr:postcode": "WC2H 7BA", "addr:street": "Lisle Street", "amenity": "bar", "contact:facebook": "kubarlondon", "contact:instagram": "kubarlondon", "email": "info@ku-bar.co.uk", "fhrs:id": "412984", "lgbtq": "primary", "min_age": "18", "name": "Ku Bar", "phone": "+44 20 7437 4303", "toilets": "yes", "toilets:access": "customers", "website": "https://ku-bar.co.uk/", "wheelchair": "limited", "wikimedia_commons": "File:Ku Bar, Chinatown, WC2 (2361962660).jpg"}}, {"type": "way", "id": 995954634, "nodes": [9196521460, 9196521448, 4854756569, 4854756571, 9196521471, 9196521470, 9196521469, 9196521468, 9196521467, 9196521466, 9196521472, 9196521473, 9196521451, 9196521453, 9196521454, 9196521450, 348812894, 9196521456, 9196521449, 9196521455, 9196521462, 9196521461, 9196521460], "tags": {"addr:city": "London", "addr:housenumber": "13-17", "addr:postcode": "WC2H 7AS", "addr:street": "Bear Street", "amenity": "bar", "fhrs:id": "428024", "fhrs:local_authority_id": "01117/0010/0/000", "indoor_seating": "yes", "name": "Zoo Bar & Club", "outdoor_seating": "no", "toilets": "yes", "toilets:access": "customers", "website": "https://www.zoobar.co.uk"}}]}